Time,header.seq,header.stamp.secs,header.stamp.nsecs,header.frame_id,magnetic_field.x,magnetic_field.y,magnetic_field.z,magnetic_field_covariance_0,magnetic_field_covariance_1,magnetic_field_covariance_2,magnetic_field_covariance_3,magnetic_field_covariance_4,magnetic_field_covariance_5,magnetic_field_covariance_6,magnetic_field_covariance_7,magnetic_field_covariance_8
1654869536.2646441,33393,1654869536,91121324,imu_link,-6.999007018748671e-05,6.766896694898605e-05,-2.2853899281471968e-05,0.0,0.0,0.0,0.0,0.0,0.0,0.0,0.0,0.0
1654869536.2647438,33394,1654869536,101218710,imu_link,-6.999007018748671e-05,6.766896694898605e-05,-2.2853899281471968e-05,0.0,0.0,0.0,0.0,0.0,0.0,0.0,0.0,0.0
1654869536.2648845,33395,1654869536,111123719,imu_link,-6.972562550799921e-05,6.821772694820538e-05,-2.2015445210854523e-05,0.0,0.0,0.0,0.0,0.0,0.0,0.0,0.0,0.0
1654869536.264987,33396,1654869536,121116593,imu_link,-6.975488940952346e-05,6.813408981543034e-05,-2.2181096937856637e-05,0.0,0.0,0.0,0.0,0.0,0.0,0.0,0.0,0.0
1654869536.265073,33397,1654869536,131632026,imu_link,-7.036000897642225e-05,6.762412522220984e-05,-2.182766365876887e-05,0.0,0.0,0.0,0.0,0.0,0.0,0.0,0.0,0.0
1654869536.2652073,33398,1654869536,141112043,imu_link,-7.036000897642225e-05,6.762412522220984e-05,-2.182766365876887e-05,0.0,0.0,0.0,0.0,0.0,0.0,0.0,0.0,0.0
1654869536.2652445,33399,1654869536,151112491,imu_link,-7.083885429892689e-05,6.717062933603302e-05,-2.1678615667042322e-05,0.0,0.0,0.0,0.0,0.0,0.0,0.0,0.0,0.0
1654869536.265271,33400,1654869536,161143140,imu_link,-7.041354547254741e-05,6.781669071642682e-05,-2.10434718610486e-05,0.0,0.0,0.0,0.0,0.0,0.0,0.0,0.0,0.0
1654869536.2653499,33401,1654869536,171110941,imu_link,-6.985013169469312e-05,6.787663005525246e-05,-2.266541196149774e-05,0.0,0.0,0.0,0.0,0.0,0.0,0.0,0.0,0.0
1654869536.2653935,33402,1654869536,181365410,imu_link,-6.967249646550044e-05,6.801714334869757e-05,-2.2790620278101414e-05,0.0,0.0,0.0,0.0,0.0,0.0,0.0,0.0,0.0
1654869536.2654543,33403,1654869536,191113169,imu_link,-6.988467066548765e-05,6.789221515646204e-05,-2.2511785573442467e-05,0.0,0.0,0.0,0.0,0.0,0.0,0.0,0.0,0.0
1654869536.2654886,33404,1654869536,201089099,imu_link,-6.988467066548765e-05,6.789221515646204e-05,-2.2511785573442467e-05,0.0,0.0,0.0,0.0,0.0,0.0,0.0,0.0,0.0
1654869536.26557,33405,1654869536,211114823,imu_link,-7.024713704595342e-05,6.765752186765894e-05,-2.2086176613811404e-05,0.0,0.0,0.0,0.0,0.0,0.0,0.0,0.0,0.0
1654869536.265644,33406,1654869536,221122659,imu_link,-7.012409332673997e-05,6.785721052438021e-05,-2.186344499932602e-05,0.0,0.0,0.0,0.0,0.0,0.0,0.0,0.0,0.0
1654869536.2657952,33407,1654869536,231122828,imu_link,-6.965239299461246e-05,6.797473906772211e-05,-2.2977799744694494e-05,0.0,0.0,0.0,0.0,0.0,0.0,0.0,0.0,0.0
1654869536.265968,33408,1654869536,241100203,imu_link,-6.962669431231916e-05,6.85861668898724e-05,-2.1167466911720112e-05,0.0,0.0,0.0,0.0,0.0,0.0,0.0,0.0,0.0
1654869536.266298,33409,1654869536,251122316,imu_link,-6.962669431231916e-05,6.85861668898724e-05,-2.1167466911720112e-05,0.0,0.0,0.0,0.0,0.0,0.0,0.0,0.0,0.0
1654869536.2772658,33410,1654869536,261113745,imu_link,-7.01967001077719e-05,6.763434066670015e-05,-2.23163533519255e-05,0.0,0.0,0.0,0.0,0.0,0.0,0.0,0.0,0.0
1654869536.277336,33411,1654869536,271116618,imu_link,-6.938855221960694e-05,6.828949699411169e-05,-2.2842377802589908e-05,0.0,0.0,0.0,0.0,0.0,0.0,0.0,0.0,0.0
1654869536.283641,33412,1654869536,281109066,imu_link,-6.923644104972482e-05,6.866324110887945e-05,-2.217376277258154e-05,0.0,0.0,0.0,0.0,0.0,0.0,0.0,0.0,0.0
1654869536.2934613,33413,1654869536,291471232,imu_link,-6.955326534807682e-05,6.841550202807412e-05,-2.1946852939436212e-05,0.0,0.0,0.0,0.0,0.0,0.0,0.0,0.0,0.0
1654869536.303314,33414,1654869536,301111313,imu_link,-6.955326534807682e-05,6.841550202807412e-05,-2.1946852939436212e-05,0.0,0.0,0.0,0.0,0.0,0.0,0.0,0.0,0.0
1654869536.3145685,33415,1654869536,311109390,imu_link,-7.008381362538785e-05,6.750146712874994e-05,-2.306100032001268e-05,0.0,0.0,0.0,0.0,0.0,0.0,0.0,0.0,0.0
1654869536.3227668,33416,1654869536,321111800,imu_link,-7.01534518157132e-05,6.749204476363957e-05,-2.287612369400449e-05,0.0,0.0,0.0,0.0,0.0,0.0,0.0,0.0,0.0
1654869536.3332262,33417,1654869536,331106785,imu_link,-6.999827746767551e-05,6.766699516447261e-05,-2.2834623450762592e-05,0.0,0.0,0.0,0.0,0.0,0.0,0.0,0.0,0.0
1654869536.3430986,33418,1654869536,341107306,imu_link,-7.041858771117404e-05,6.778500392101705e-05,-2.1128569642314687e-05,0.0,0.0,0.0,0.0,0.0,0.0,0.0,0.0,0.0
1654869536.3543425,33419,1654869536,351108290,imu_link,-7.005720544839278e-05,6.77558418828994e-05,-2.2386026103049517e-05,0.0,0.0,0.0,0.0,0.0,0.0,0.0,0.0,0.0
1654869536.3632543,33420,1654869536,361115145,imu_link,-7.005720544839278e-05,6.77558418828994e-05,-2.2386026103049517e-05,0.0,0.0,0.0,0.0,0.0,0.0,0.0,0.0,0.0
1654869536.3773081,33421,1654869536,371564564,imu_link,-7.051719876471907e-05,6.74812908982858e-05,-2.176234011130873e-05,0.0,0.0,0.0,0.0,0.0,0.0,0.0,0.0,0.0
1654869536.3946433,33422,1654869536,391107543,imu_link,-6.95448397891596e-05,6.816712266299874e-05,-2.2732356228516437e-05,0.0,0.0,0.0,0.0,0.0,0.0,0.0,0.0,0.0
1654869536.402738,33423,1654869536,401119119,imu_link,-7.003195059951395e-05,6.794054934289306e-05,-2.1899924831814133e-05,0.0,0.0,0.0,0.0,0.0,0.0,0.0,0.0,0.0
1654869536.4147687,33424,1654869536,411107771,imu_link,-7.003195059951395e-05,6.794054934289306e-05,-2.1899924831814133e-05,0.0,0.0,0.0,0.0,0.0,0.0,0.0,0.0,0.0
1654869536.4231763,33425,1654869536,421114014,imu_link,-7.017072493908927e-05,6.741019751643762e-05,-2.3063728804118e-05,0.0,0.0,0.0,0.0,0.0,0.0,0.0,0.0,0.0
1654869536.4350998,33426,1654869536,431117591,imu_link,-7.022002682788298e-05,6.724384729750454e-05,-2.3396853066515177e-05,0.0,0.0,0.0,0.0,0.0,0.0,0.0,0.0,0.0
1654869536.4435668,33427,1654869536,441116946,imu_link,-6.957817095099017e-05,6.798798131057993e-05,-2.316272002644837e-05,0.0,0.0,0.0,0.0,0.0,0.0,0.0,0.0,0.0
1654869536.4546793,33428,1654869536,451105376,imu_link,-6.97542927809991e-05,6.77087955409661e-05,-2.3449063519365154e-05,0.0,0.0,0.0,0.0,0.0,0.0,0.0,0.0,0.0
1654869536.4634273,33429,1654869536,461126081,imu_link,-6.97542927809991e-05,6.77087955409661e-05,-2.3449063519365154e-05,0.0,0.0,0.0,0.0,0.0,0.0,0.0,0.0,0.0
1654869536.4736304,33430,1654869536,471282315,imu_link,-7.026076491456479e-05,6.733075133524835e-05,-2.3021613742457703e-05,0.0,0.0,0.0,0.0,0.0,0.0,0.0,0.0,0.0
1654869536.4828117,33431,1654869536,481112495,imu_link,-7.012080459389836e-05,6.768439925508574e-05,-2.2403000912163407e-05,0.0,0.0,0.0,0.0,0.0,0.0,0.0,0.0,0.0
1654869536.49367,33432,1654869536,491109572,imu_link,-6.985319487284869e-05,6.75474148010835e-05,-2.361942460993305e-05,0.0,0.0,0.0,0.0,0.0,0.0,0.0,0.0,0.0
1654869536.5032003,33433,1654869536,501110242,imu_link,-7.041038770694286e-05,6.752739864168689e-05,-2.1964238840155303e-05,0.0,0.0,0.0,0.0,0.0,0.0,0.0,0.0,0.0
1654869536.5136476,33434,1654869536,511114189,imu_link,-7.041038770694286e-05,6.752739864168689e-05,-2.1964238840155303e-05,0.0,0.0,0.0,0.0,0.0,0.0,0.0,0.0,0.0
1654869536.5230153,33435,1654869536,521110044,imu_link,-7.020375051070005e-05,6.74301918479614e-05,-2.2904196157469414e-05,0.0,0.0,0.0,0.0,0.0,0.0,0.0,0.0,0.0
1654869536.5345309,33436,1654869536,531106788,imu_link,-7.033001747913659e-05,6.73807953717187e-05,-2.266089359181933e-05,0.0,0.0,0.0,0.0,0.0,0.0,0.0,0.0,0.0
1654869536.5431871,33437,1654869536,541109087,imu_link,-7.033001747913659e-05,6.775734073016793e-05,-2.1508842110051773e-05,0.0,0.0,0.0,0.0,0.0,0.0,0.0,0.0,0.0
1654869536.5532641,33438,1654869536,551118552,imu_link,-7.006905070738867e-05,6.769127503503114e-05,-2.2543692466570064e-05,0.0,0.0,0.0,0.0,0.0,0.0,0.0,0.0,0.0
1654869536.5632794,33439,1654869536,561111130,imu_link,-7.021196506684646e-05,6.722549005644396e-05,-2.3473672627005726e-05,0.0,0.0,0.0,0.0,0.0,0.0,0.0,0.0,0.0
1654869536.5736604,33440,1654869536,571087338,imu_link,-7.021196506684646e-05,6.722549005644396e-05,-2.3473672627005726e-05,0.0,0.0,0.0,0.0,0.0,0.0,0.0,0.0,0.0
1654869536.5831416,33441,1654869536,581108247,imu_link,-6.993745046202093e-05,6.778368697268888e-05,-2.2674330466543324e-05,0.0,0.0,0.0,0.0,0.0,0.0,0.0,0.0,0.0
1654869536.594542,33442,1654869536,591086159,imu_link,-7.021033525234088e-05,6.730363384122029e-05,-2.3253613107954152e-05,0.0,0.0,0.0,0.0,0.0,0.0,0.0,0.0,0.0
1654869536.6029813,33443,1654869536,601108364,imu_link,-7.071834988892078e-05,6.685280823148787e-05,-2.3013426471152343e-05,0.0,0.0,0.0,0.0,0.0,0.0,0.0,0.0,0.0
1654869536.6135972,33444,1654869536,611108774,imu_link,-7.070876017678529e-05,6.645785470027477e-05,-2.415832750557456e-05,0.0,0.0,0.0,0.0,0.0,0.0,0.0,0.0,0.0
1654869536.622872,33445,1654869536,621108184,imu_link,-7.070876017678529e-05,6.645785470027477e-05,-2.415832750557456e-05,0.0,0.0,0.0,0.0,0.0,0.0,0.0,0.0,0.0
1654869536.6345453,33446,1654869536,631109132,imu_link,-7.114374602679163e-05,6.620238127652556e-05,-2.3575668819830753e-05,0.0,0.0,0.0,0.0,0.0,0.0,0.0,0.0,0.0
1654869536.6426811,33447,1654869536,641109024,imu_link,-6.983047933317721e-05,6.777575617888942e-05,-2.3025022528599948e-05,0.0,0.0,0.0,0.0,0.0,0.0,0.0,0.0,0.0
1654869536.6531746,33448,1654869536,651109267,imu_link,-7.075663597788662e-05,6.656967889284715e-05,-2.3706035790382884e-05,0.0,0.0,0.0,0.0,0.0,0.0,0.0,0.0,0.0
1654869536.6629436,33449,1654869536,661189432,imu_link,-7.07801737007685e-05,6.702804239466786e-05,-2.2302658180706203e-05,0.0,0.0,0.0,0.0,0.0,0.0,0.0,0.0,0.0
1654869536.674297,33450,1654869536,671114551,imu_link,-7.07801737007685e-05,6.702804239466786e-05,-2.2302658180706203e-05,0.0,0.0,0.0,0.0,0.0,0.0,0.0,0.0,0.0
1654869536.6829402,33451,1654869536,681112350,imu_link,-7.023443322395906e-05,6.751587352482602e-05,-2.255507934023626e-05,0.0,0.0,0.0,0.0,0.0,0.0,0.0,0.0,0.0
1654869536.6931245,33452,1654869536,691112427,imu_link,-7.046054088277742e-05,6.73722752253525e-05,-2.2277523385128006e-05,0.0,0.0,0.0,0.0,0.0,0.0,0.0,0.0,0.0
1654869536.7033567,33453,1654869536,701090376,imu_link,-7.006542000453919e-05,6.788334576413035e-05,-2.197017238358967e-05,0.0,0.0,0.0,0.0,0.0,0.0,0.0,0.0,0.0
1654869536.714252,33454,1654869536,711114173,imu_link,-7.023328362265602e-05,6.731192115694284e-05,-2.31601188716013e-05,0.0,0.0,0.0,0.0,0.0,0.0,0.0,0.0,0.0
1654869536.7236075,33455,1654869536,721112454,imu_link,-7.099534559529275e-05,6.672066956525669e-05,-2.2539152269018814e-05,0.0,0.0,0.0,0.0,0.0,0.0,0.0,0.0,0.0
1654869536.732931,33456,1654869536,731107902,imu_link,-7.099534559529275e-05,6.672066956525669e-05,-2.2539152269018814e-05,0.0,0.0,0.0,0.0,0.0,0.0,0.0,0.0,0.0
1654869536.7430465,33457,1654869536,741120386,imu_link,-7.061639189487323e-05,6.68269203742966e-05,-2.339844468224328e-05,0.0,0.0,0.0,0.0,0.0,0.0,0.0,0.0,0.0
1654869536.7529035,33458,1654869536,751116778,imu_link,-7.021650526439771e-05,6.73169779474847e-05,-2.3196258553070948e-05,0.0,0.0,0.0,0.0,0.0,0.0,0.0,0.0,0.0
1654869536.7628255,33459,1654869536,761109077,imu_link,-7.036245369818062e-05,6.713996845064685e-05,-2.326691355847288e-05,0.0,0.0,0.0,0.0,0.0,0.0,0.0,0.0,0.0
1654869536.7729785,33460,1654869536,771107673,imu_link,-7.088276470312849e-05,6.701589154545218e-05,-2.2011434339219704e-05,0.0,0.0,0.0,0.0,0.0,0.0,0.0,0.0,0.0
1654869536.7827978,33461,1654869536,781110213,imu_link,-7.088276470312849e-05,6.701589154545218e-05,-2.2011434339219704e-05,0.0,0.0,0.0,0.0,0.0,0.0,0.0,0.0,0.0
1654869536.7937398,33462,1654869536,791108253,imu_link,-7.052381988614798e-05,6.746660801582038e-05,-2.1786399884149432e-05,0.0,0.0,0.0,0.0,0.0,0.0,0.0,0.0,0.0
1654869536.80269,33463,1654869536,801109163,imu_link,-7.041616481728852e-05,6.758020754205063e-05,-2.178255090257153e-05,0.0,0.0,0.0,0.0,0.0,0.0,0.0,0.0,0.0
1654869536.813154,33464,1654869536,811108629,imu_link,-7.05411221133545e-05,6.738256342941895e-05,-2.1989577362546697e-05,0.0,0.0,0.0,0.0,0.0,0.0,0.0,0.0,0.0
1654869536.822695,33465,1654869536,821110428,imu_link,-7.017829921096563e-05,6.750880129402503e-05,-2.2750109565095045e-05,0.0,0.0,0.0,0.0,0.0,0.0,0.0,0.0,0.0
1654869536.8331282,33466,1654869536,831110209,imu_link,-7.017829921096563e-05,6.750880129402503e-05,-2.2750109565095045e-05,0.0,0.0,0.0,0.0,0.0,0.0,0.0,0.0,0.0
1654869536.8428502,33467,1654869536,841111915,imu_link,-7.084107346599922e-05,6.671645678579807e-05,-2.3031629098113626e-05,0.0,0.0,0.0,0.0,0.0,0.0,0.0,0.0,0.0
1654869536.8534267,33468,1654869536,851111104,imu_link,-7.06939390511252e-05,6.710390152875334e-05,-2.234802013845183e-05,0.0,0.0,0.0,0.0,0.0,0.0,0.0,0.0,0.0
1654869536.8628345,33469,1654869536,861112699,imu_link,-7.003411155892536e-05,6.753076013410464e-05,-2.3126156520447694e-05,0.0,0.0,0.0,0.0,0.0,0.0,0.0,0.0,0.0
1654869536.8737292,33470,1654869536,871205252,imu_link,-7.020123302936554e-05,6.741356628481299e-05,-2.296078127983492e-05,0.0,0.0,0.0,0.0,0.0,0.0,0.0,0.0,0.0
1654869536.8826823,33471,1654869536,881113316,imu_link,-7.063385419314727e-05,6.72204332659021e-05,-2.2187232389114797e-05,0.0,0.0,0.0,0.0,0.0,0.0,0.0,0.0,0.0
1654869536.892745,33472,1654869536,891108041,imu_link,-7.063385419314727e-05,6.72204332659021e-05,-2.2187232389114797e-05,0.0,0.0,0.0,0.0,0.0,0.0,0.0,0.0,0.0
1654869536.9028034,33473,1654869536,901119488,imu_link,-7.055711466819048e-05,6.690708687528968e-05,-2.334810051252134e-05,0.0,0.0,0.0,0.0,0.0,0.0,0.0,0.0,0.0
1654869536.914106,33474,1654869536,911111417,imu_link,-7.055137393763289e-05,6.693411705782637e-05,-2.328793198103085e-05,0.0,0.0,0.0,0.0,0.0,0.0,0.0,0.0,0.0
1654869536.9228635,33475,1654869536,921113050,imu_link,-7.122526585590094e-05,6.657235644524917e-05,-2.225043863290921e-05,0.0,0.0,0.0,0.0,0.0,0.0,0.0,0.0,0.0
1654869536.9337566,33476,1654869536,931108461,imu_link,-7.085020479280502e-05,6.674598262179643e-05,-2.2917718524695374e-05,0.0,0.0,0.0,0.0,0.0,0.0,0.0,0.0,0.0
1654869536.9430754,33477,1654869536,941112352,imu_link,-7.085020479280502e-05,6.674598262179643e-05,-2.2917718524695374e-05,0.0,0.0,0.0,0.0,0.0,0.0,0.0,0.0,0.0
1654869536.9532049,33478,1654869536,951118632,imu_link,-7.121196540538222e-05,6.672758172499016e-05,-2.1823983843205497e-05,0.0,0.0,0.0,0.0,0.0,0.0,0.0,0.0,0.0
1654869536.9627302,33479,1654869536,961110932,imu_link,-7.069601997500286e-05,6.703008693875745e-05,-2.2561926016351208e-05,0.0,0.0,0.0,0.0,0.0,0.0,0.0,0.0,0.0
1654869536.9728065,33480,1654869536,971110213,imu_link,-7.067308615660295e-05,6.679814396193251e-05,-2.330930146854371e-05,0.0,0.0,0.0,0.0,0.0,0.0,0.0,0.0,0.0
1654869536.9827921,33481,1654869536,981105883,imu_link,-7.110133446985856e-05,6.636320904362947e-05,-2.324919478269294e-05,0.0,0.0,0.0,0.0,0.0,0.0,0.0,0.0,0.0
1654869536.9933345,33482,1654869536,991109386,imu_link,-7.110133446985856e-05,6.636320904362947e-05,-2.324919478269294e-05,0.0,0.0,0.0,0.0,0.0,0.0,0.0,0.0,0.0
1654869537.0037599,33483,1654869537,1112259,imu_link,-7.113569154171273e-05,6.717705400660634e-05,-2.066293927782681e-05,0.0,0.0,0.0,0.0,0.0,0.0,0.0,0.0,0.0
1654869537.0128677,33484,1654869537,11108994,imu_link,-7.103294046828523e-05,6.703024700982496e-05,-2.1477158952620812e-05,0.0,0.0,0.0,0.0,0.0,0.0,0.0,0.0,0.0
1654869537.022821,33485,1654869537,21107591,imu_link,-7.109127909643576e-05,6.678452336927876e-05,-2.2042184355086647e-05,0.0,0.0,0.0,0.0,0.0,0.0,0.0,0.0,0.0
1654869537.0347323,33486,1654869537,31116242,imu_link,-7.127716526156291e-05,6.680545629933476e-05,-2.13681432796875e-05,0.0,0.0,0.0,0.0,0.0,0.0,0.0,0.0,0.0
1654869537.0427692,33487,1654869537,41112913,imu_link,-7.127716526156291e-05,6.680545629933476e-05,-2.13681432796875e-05,0.0,0.0,0.0,0.0,0.0,0.0,0.0,0.0,0.0
1654869537.0530095,33488,1654869537,51110417,imu_link,-7.072325388435274e-05,6.721556565025821e-05,-2.1915515389991924e-05,0.0,0.0,0.0,0.0,0.0,0.0,0.0,0.0,0.0
1654869537.063233,33489,1654869537,61133679,imu_link,-7.131923484848812e-05,6.670639413641766e-05,-2.1536550775635988e-05,0.0,0.0,0.0,0.0,0.0,0.0,0.0,0.0,0.0
1654869537.0730472,33490,1654869537,71113462,imu_link,-7.1272901550401e-05,6.65712941554375e-05,-2.21005902858451e-05,0.0,0.0,0.0,0.0,0.0,0.0,0.0,0.0,0.0
1654869537.083316,33491,1654869537,81115670,imu_link,-7.096819899743423e-05,6.71620509820059e-05,-2.12784725590609e-05,0.0,0.0,0.0,0.0,0.0,0.0,0.0,0.0,0.0
1654869537.0930734,33492,1654869537,91132358,imu_link,-7.154589548008516e-05,6.665488763246685e-05,-2.09358968277229e-05,0.0,0.0,0.0,0.0,0.0,0.0,0.0,0.0,0.0
1654869537.106369,33493,1654869537,101113215,imu_link,-7.154589548008516e-05,6.665488763246685e-05,-2.09358968277229e-05,0.0,0.0,0.0,0.0,0.0,0.0,0.0,0.0,0.0
1654869537.1140993,33494,1654869537,111116107,imu_link,-7.127631397452205e-05,6.669702270301059e-05,-2.1707011910621077e-05,0.0,0.0,0.0,0.0,0.0,0.0,0.0,0.0,0.0
1654869537.1227357,33495,1654869537,121111852,imu_link,-7.171424658736214e-05,6.623442459385842e-05,-2.1681053112843074e-05,0.0,0.0,0.0,0.0,0.0,0.0,0.0,0.0,0.0
1654869537.1327877,33496,1654869537,131112079,imu_link,-7.09292507963255e-05,6.715802010148764e-05,-2.1420573830255307e-05,0.0,0.0,0.0,0.0,0.0,0.0,0.0,0.0,0.0
1654869537.1427183,33497,1654869537,141109860,imu_link,-7.041839853627607e-05,6.728005973855034e-05,-2.2685724616167136e-05,0.0,0.0,0.0,0.0,0.0,0.0,0.0,0.0,0.0
1654869537.1534762,33498,1654869537,151116827,imu_link,-7.041839853627607e-05,6.728005973855034e-05,-2.2685724616167136e-05,0.0,0.0,0.0,0.0,0.0,0.0,0.0,0.0,0.0
1654869537.1633468,33499,1654869537,161112646,imu_link,-7.092572195688263e-05,6.676749035250396e-05,-2.261955160065554e-05,0.0,0.0,0.0,0.0,0.0,0.0,0.0,0.0,0.0
1654869537.172714,33500,1654869537,171114557,imu_link,-7.077588088577613e-05,6.728924199705943e-05,-2.151586886611767e-05,0.0,0.0,0.0,0.0,0.0,0.0,0.0,0.0,0.0
1654869537.1826727,33501,1654869537,181113876,imu_link,-7.021025521680713e-05,6.771230982849374e-05,-2.2035492293071002e-05,0.0,0.0,0.0,0.0,0.0,0.0,0.0,0.0,0.0
1654869537.1935039,33502,1654869537,191112602,imu_link,-7.034365262370557e-05,6.760492397006601e-05,-2.193959880969487e-05,0.0,0.0,0.0,0.0,0.0,0.0,0.0,0.0,0.0
1654869537.202719,33503,1654869537,201113255,imu_link,-7.034365262370557e-05,6.760492397006601e-05,-2.193959880969487e-05,0.0,0.0,0.0,0.0,0.0,0.0,0.0,0.0,0.0
1654869537.2131786,33504,1654869537,211145071,imu_link,-7.023187936283648e-05,6.785817095078528e-05,-2.1511665181606077e-05,0.0,0.0,0.0,0.0,0.0,0.0,0.0,0.0,0.0
1654869537.2227957,33505,1654869537,221114281,imu_link,-7.138439104892313e-05,6.655789911746979e-05,-2.1778792870463803e-05,0.0,0.0,0.0,0.0,0.0,0.0,0.0,0.0,0.0
1654869537.233984,33506,1654869537,231113489,imu_link,-7.10302556399256e-05,6.68276334181428e-05,-2.210816637671087e-05,0.0,0.0,0.0,0.0,0.0,0.0,0.0,0.0,0.0
1654869537.2430482,33507,1654869537,241110511,imu_link,-7.022821955615655e-05,6.727869185851887e-05,-2.327176116523333e-05,0.0,0.0,0.0,0.0,0.0,0.0,0.0,0.0,0.0
1654869537.2533188,33508,1654869537,251110571,imu_link,-7.045828533591703e-05,6.714399205520749e-05,-2.2963304218137637e-05,0.0,0.0,0.0,0.0,0.0,0.0,0.0,0.0,0.0
1654869537.2627943,33509,1654869537,261112075,imu_link,-7.024875230854377e-05,6.73402682878077e-05,-2.303043038409669e-05,0.0,0.0,0.0,0.0,0.0,0.0,0.0,0.0,0.0
1654869537.2730083,33510,1654869537,271118652,imu_link,-7.126511627575383e-05,6.660513463430107e-05,-2.202362156822346e-05,0.0,0.0,0.0,0.0,0.0,0.0,0.0,0.0,0.0
1654869537.282738,33511,1654869537,281108324,imu_link,-7.055874448269606e-05,6.732978363288566e-05,-2.2094453015597537e-05,0.0,0.0,0.0,0.0,0.0,0.0,0.0,0.0,0.0
1654869537.2931914,33512,1654869537,291106106,imu_link,-7.065709360176697e-05,6.70029257889837e-05,-2.276362465636339e-05,0.0,0.0,0.0,0.0,0.0,0.0,0.0,0.0,0.0
1654869537.3028066,33513,1654869537,301107128,imu_link,-7.029653352219611e-05,6.739220407325774e-05,-2.273079371661879e-05,0.0,0.0,0.0,0.0,0.0,0.0,0.0,0.0,0.0
1654869537.314818,33514,1654869537,311460722,imu_link,-7.03224868630059e-05,6.725730054313317e-05,-2.304785630258266e-05,0.0,0.0,0.0,0.0,0.0,0.0,0.0,0.0,0.0
1654869537.323215,33515,1654869537,321107506,imu_link,-7.03224868630059e-05,6.725730054313317e-05,-2.304785630258266e-05,0.0,0.0,0.0,0.0,0.0,0.0,0.0,0.0,0.0
1654869537.3334875,33516,1654869537,331106751,imu_link,-7.070972787914798e-05,6.718017539242283e-05,-2.2067129975766875e-05,0.0,0.0,0.0,0.0,0.0,0.0,0.0,0.0,0.0
1654869537.3426685,33517,1654869537,341108051,imu_link,-7.008299871813506e-05,6.795199442422017e-05,-2.1700217985198833e-05,0.0,0.0,0.0,0.0,0.0,0.0,0.0,0.0,0.0
1654869537.3543584,33518,1654869537,351630468,imu_link,-7.067025580909103e-05,6.74471230013296e-05,-2.136820330633782e-05,0.0,0.0,0.0,0.0,0.0,0.0,0.0,0.0,0.0
1654869537.3628285,33519,1654869537,361113263,imu_link,-7.067025580909103e-05,6.74471230013296e-05,-2.136820330633782e-05,0.0,0.0,0.0,0.0,0.0,0.0,0.0,0.0,0.0
1654869537.3731382,33520,1654869537,371108656,imu_link,-7.089351856848225e-05,6.714966730214655e-05,-2.1564568669418804e-05,0.0,0.0,0.0,0.0,0.0,0.0,0.0,0.0,0.0
1654869537.3826365,33521,1654869537,381110012,imu_link,-7.002736674621701e-05,6.772107735741884e-05,-2.258367749163881e-05,0.0,0.0,0.0,0.0,0.0,0.0,0.0,0.0,0.0
1654869537.393611,33522,1654869537,391114775,imu_link,-7.026642560958862e-05,6.785901496186852e-05,-2.139590105798561e-05,0.0,0.0,0.0,0.0,0.0,0.0,0.0,0.0,0.0
1654869537.4030359,33523,1654869537,401110483,imu_link,-7.103013922460377e-05,6.713930633850396e-05,-2.1143152480362915e-05,0.0,0.0,0.0,0.0,0.0,0.0,0.0,0.0,0.0
1654869537.412902,33524,1654869537,411129967,imu_link,-7.103013922460377e-05,6.713930633850396e-05,-2.1143152480362915e-05,0.0,0.0,0.0,0.0,0.0,0.0,0.0,0.0,0.0
1654869537.4226606,33525,1654869537,421106324,imu_link,-7.005917723290622e-05,6.800748815294355e-05,-2.160308758902829e-05,0.0,0.0,0.0,0.0,0.0,0.0,0.0,0.0,0.0
1654869537.434129,33526,1654869537,431118994,imu_link,-7.028926484053954e-05,6.764024874428287e-05,-2.2004905986250378e-05,0.0,0.0,0.0,0.0,0.0,0.0,0.0,0.0,0.0
1654869537.442758,33527,1654869537,441109443,imu_link,-7.044357334962115e-05,6.724021659465507e-05,-2.2725682356394827e-05,0.0,0.0,0.0,0.0,0.0,0.0,0.0,0.0,0.0
1654869537.4532406,33528,1654869537,451492257,imu_link,-6.92957328283228e-05,6.815777305746451e-05,-2.3507845980930142e-05,0.0,0.0,0.0,0.0,0.0,0.0,0.0,0.0,0.0
1654869537.463002,33529,1654869537,461108192,imu_link,-6.989908433752134e-05,6.78282231092453e-05,-2.2659429305349477e-05,0.0,0.0,0.0,0.0,0.0,0.0,0.0,0.0,0.0
1654869537.474368,33530,1654869537,471119714,imu_link,-6.989908433752134e-05,6.78282231092453e-05,-2.2659429305349477e-05,0.0,0.0,0.0,0.0,0.0,0.0,0.0,0.0,0.0
1654869537.4834673,33531,1654869537,481110237,imu_link,-6.95676717441529e-05,6.792362546548247e-05,-2.338204467378091e-05,0.0,0.0,0.0,0.0,0.0,0.0,0.0,0.0,0.0
1654869537.4928894,33532,1654869537,491108907,imu_link,-6.988399400142953e-05,6.762488192180172e-05,-2.330457209609449e-05,0.0,0.0,0.0,0.0,0.0,0.0,0.0,0.0,0.0
1654869537.5047338,33533,1654869537,501105356,imu_link,-7.047093095025048e-05,6.70725858071819e-05,-2.3132590285968035e-05,0.0,0.0,0.0,0.0,0.0,0.0,0.0,0.0,0.0
1654869537.5145953,33534,1654869537,511117656,imu_link,-7.046726386761293e-05,6.720987585140392e-05,-2.2741980501450598e-05,0.0,0.0,0.0,0.0,0.0,0.0,0.0,0.0,0.0
1654869537.5233366,33535,1654869537,521107086,imu_link,-7.046726386761293e-05,6.720987585140392e-05,-2.2741980501450598e-05,0.0,0.0,0.0,0.0,0.0,0.0,0.0,0.0,0.0
1654869537.5329485,33536,1654869537,531106368,imu_link,-7.058240589685738e-05,6.681402010144666e-05,-2.3537437300547026e-05,0.0,0.0,0.0,0.0,0.0,0.0,0.0,0.0,0.0
1654869537.543188,33537,1654869537,541104668,imu_link,-7.082908996380866e-05,6.645252142334357e-05,-2.3818107365514152e-05,0.0,0.0,0.0,0.0,0.0,0.0,0.0,0.0,0.0
1654869537.5546014,33538,1654869537,551119523,imu_link,-7.118956273188815e-05,6.637865590164438e-05,-2.2932956198928878e-05,0.0,0.0,0.0,0.0,0.0,0.0,0.0,0.0,0.0
1654869537.5628798,33539,1654869537,561111287,imu_link,-7.114369509508833e-05,6.637132173636928e-05,-2.3095923097571358e-05,0.0,0.0,0.0,0.0,0.0,0.0,0.0,0.0,0.0
1654869537.574421,33540,1654869537,571123161,imu_link,-7.114369509508833e-05,6.637132173636928e-05,-2.3095923097571358e-05,0.0,0.0,0.0,0.0,0.0,0.0,0.0,0.0,0.0
1654869537.5828824,33541,1654869537,581107517,imu_link,-7.066201942507178e-05,6.723096157656983e-05,-2.20652455027448e-05,0.0,0.0,0.0,0.0,0.0,0.0,0.0,0.0,0.0
1654869537.5932953,33542,1654869537,591112651,imu_link,-7.025286322459579e-05,6.735522765666246e-05,-2.297410355822649e-05,0.0,0.0,0.0,0.0,0.0,0.0,0.0,0.0,0.0
1654869537.6044369,33543,1654869537,601110007,imu_link,-6.989845132920891e-05,6.765619764337316e-05,-2.3169930500444025e-05,0.0,0.0,0.0,0.0,0.0,0.0,0.0,0.0,0.0
1654869537.61332,33544,1654869537,611107363,imu_link,-7.003249629633501e-05,6.75884512020275e-05,-2.2961969079915434e-05,0.0,0.0,0.0,0.0,0.0,0.0,0.0,0.0,0.0
1654869537.6228611,33545,1654869537,621108570,imu_link,-7.004601502558216e-05,6.779902469133958e-05,-2.2290090782917105e-05,0.0,0.0,0.0,0.0,0.0,0.0,0.0,0.0,0.0
1654869537.6340246,33546,1654869537,631115667,imu_link,-7.004601502558216e-05,6.779902469133958e-05,-2.2290090782917105e-05,0.0,0.0,0.0,0.0,0.0,0.0,0.0,0.0,0.0
1654869537.6447184,33547,1654869537,641111893,imu_link,-6.981735350564122e-05,6.783116987207904e-05,-2.290129486937076e-05,0.0,0.0,0.0,0.0,0.0,0.0,0.0,0.0,0.0
1654869537.6534858,33548,1654869537,651112230,imu_link,-7.037427712930366e-05,6.741460674675182e-05,-2.242171103716828e-05,0.0,0.0,0.0,0.0,0.0,0.0,0.0,0.0,0.0
1654869537.6630478,33549,1654869537,661109309,imu_link,-7.043105142656714e-05,6.743271660525352e-05,-2.218773079221137e-05,0.0,0.0,0.0,0.0,0.0,0.0,0.0,0.0,0.0
1654869537.6740727,33550,1654869537,671115627,imu_link,-7.054508751025423e-05,6.737787771271542e-05,-2.1991183530190028e-05,0.0,0.0,0.0,0.0,0.0,0.0,0.0,0.0,0.0
1654869537.6830857,33551,1654869537,681113427,imu_link,-7.054508751025423e-05,6.737787771271542e-05,-2.1991183530190028e-05,0.0,0.0,0.0,0.0,0.0,0.0,0.0,0.0,0.0
1654869537.6928442,33552,1654869537,691108006,imu_link,-7.053549779811874e-05,6.747526640538126e-05,-2.1721692974097095e-05,0.0,0.0,0.0,0.0,0.0,0.0,0.0,0.0,0.0
1654869537.7035048,33553,1654869537,701111547,imu_link,-7.061162614263594e-05,6.73530885251239e-05,-2.185313314839732e-05,0.0,0.0,0.0,0.0,0.0,0.0,0.0,0.0,0.0
1654869537.713966,33554,1654869537,711114773,imu_link,-7.02277320669964e-05,6.768902676412836e-05,-2.205133205279708e-05,0.0,0.0,0.0,0.0,0.0,0.0,0.0,0.0,0.0
1654869537.723089,33555,1654869537,721112536,imu_link,-7.126347918529063e-05,6.63985701976344e-05,-2.2643916963716038e-05,0.0,0.0,0.0,0.0,0.0,0.0,0.0,0.0,0.0
1654869537.732957,33556,1654869537,731108688,imu_link,-7.126347918529063e-05,6.63985701976344e-05,-2.2643916963716038e-05,0.0,0.0,0.0,0.0,0.0,0.0,0.0,0.0,0.0
1654869537.7429187,33557,1654869537,741109044,imu_link,-7.011205889284611e-05,6.771583139197901e-05,-2.233527811767999e-05,0.0,0.0,0.0,0.0,0.0,0.0,0.0,0.0,0.0
1654869537.7531934,33558,1654869537,751110215,imu_link,-6.988542736507952e-05,6.760622636647895e-05,-2.335434328415431e-05,0.0,0.0,0.0,0.0,0.0,0.0,0.0,0.0,0.0
1654869537.7630033,33559,1654869537,761114293,imu_link,-7.04953636159189e-05,6.745218706782907e-05,-2.192270039813593e-05,0.0,0.0,0.0,0.0,0.0,0.0,0.0,0.0,0.0
1654869537.7730792,33560,1654869537,771114648,imu_link,-6.976606528041884e-05,6.778036913601682e-05,-2.320596104254946e-05,0.0,0.0,0.0,0.0,0.0,0.0,0.0,0.0,0.0
1654869537.782949,33561,1654869537,781106431,imu_link,-6.976606528041884e-05,6.778036913601682e-05,-2.320596104254946e-05,0.0,0.0,0.0,0.0,0.0,0.0,0.0,0.0,0.0
1654869537.7936769,33562,1654869537,791109360,imu_link,-6.94677364663221e-05,6.806585588492453e-05,-2.3265280105988495e-05,0.0,0.0,0.0,0.0,0.0,0.0,0.0,0.0,0.0
1654869537.803016,33563,1654869537,801109549,imu_link,-7.00836899341084e-05,6.771299376850948e-05,-2.2432706828112714e-05,0.0,0.0,0.0,0.0,0.0,0.0,0.0,0.0,0.0
1654869537.8134727,33564,1654869537,811110072,imu_link,-7.013612048467621e-05,6.746370490873232e-05,-2.301248605363071e-05,0.0,0.0,0.0,0.0,0.0,0.0,0.0,0.0,0.0
1654869537.8231995,33565,1654869537,821109891,imu_link,-6.96916613378562e-05,6.795685476390645e-05,-2.2911510313861072e-05,0.0,0.0,0.0,0.0,0.0,0.0,0.0,0.0,0.0
1654869537.8330946,33566,1654869537,831108469,imu_link,-7.006609666859731e-05,6.76097406540066e-05,-2.279619366163388e-05,0.0,0.0,0.0,0.0,0.0,0.0,0.0,0.0,0.0
1654869537.843529,33567,1654869537,841113121,imu_link,-7.006609666859731e-05,6.76097406540066e-05,-2.279619366163388e-05,0.0,0.0,0.0,0.0,0.0,0.0,0.0,0.0,0.0
1654869537.853737,33568,1654869537,851108014,imu_link,-7.030613051028922e-05,6.694965122733265e-05,-2.397480966465082e-05,0.0,0.0,0.0,0.0,0.0,0.0,0.0,0.0,0.0
1654869537.8630366,33569,1654869537,861109425,imu_link,-7.017730240477249e-05,6.769975880160928e-05,-2.2178535800776444e-05,0.0,0.0,0.0,0.0,0.0,0.0,0.0,0.0,0.0
1654869537.8747401,33570,1654869537,871109948,imu_link,-6.980553007451817e-05,6.773853237973526e-05,-2.320945350220427e-05,0.0,0.0,0.0,0.0,0.0,0.0,0.0,0.0,0.0
1654869537.8826463,33571,1654869537,881110526,imu_link,-7.002241909503937e-05,6.806001329096034e-05,-2.1556796127697453e-05,0.0,0.0,0.0,0.0,0.0,0.0,0.0,0.0,0.0
1654869537.8933065,33572,1654869537,891107604,imu_link,-7.002241909503937e-05,6.806001329096034e-05,-2.1556796127697453e-05,0.0,0.0,0.0,0.0,0.0,0.0,0.0,0.0,0.0
1654869537.9035182,33573,1654869537,901108738,imu_link,-6.985189247643575e-05,6.794629734940827e-05,-2.2450267351814546e-05,0.0,0.0,0.0,0.0,0.0,0.0,0.0,0.0,0.0
1654869537.912912,33574,1654869537,911108297,imu_link,-6.969911919441074e-05,6.795071385568008e-05,-2.2907064703758806e-05,0.0,0.0,0.0,0.0,0.0,0.0,0.0,0.0,0.0
1654869537.9236355,33575,1654869537,921108968,imu_link,-6.975066207814962e-05,6.770613981643692e-05,-2.3467511709895916e-05,0.0,0.0,0.0,0.0,0.0,0.0,0.0,0.0,0.0
1654869537.9327357,33576,1654869537,931108842,imu_link,-6.973319977987558e-05,6.780441617593169e-05,-2.3234510081238113e-05,0.0,0.0,0.0,0.0,0.0,0.0,0.0,0.0,0.0
1654869537.9429603,33577,1654869537,941107976,imu_link,-6.973319977987558e-05,6.780441617593169e-05,-2.3234510081238113e-05,0.0,0.0,0.0,0.0,0.0,0.0,0.0,0.0,0.0
1654869537.9532115,33578,1654869537,951110054,imu_link,-7.018041651463136e-05,6.754272180842236e-05,-2.26426673179958e-05,0.0,0.0,0.0,0.0,0.0,0.0,0.0,0.0,0.0
1654869537.9627879,33579,1654869537,961111595,imu_link,-6.959700840525329e-05,6.794625369366258e-05,-2.3228481950354762e-05,0.0,0.0,0.0,0.0,0.0,0.0,0.0,0.0,0.0
1654869537.9734313,33580,1654869537,971106969,imu_link,-7.009455293882638e-05,6.767036393284798e-05,-2.252722333651036e-05,0.0,0.0,0.0,0.0,0.0,0.0,0.0,0.0,0.0
1654869537.9828317,33581,1654869537,981109992,imu_link,-7.015529263298959e-05,6.771976040909067e-05,-2.21871305257082e-05,0.0,0.0,0.0,0.0,0.0,0.0,0.0,0.0,0.0
1654869537.9949253,33582,1654869537,991117069,imu_link,-6.982828926993534e-05,6.783404387533665e-05,-2.285938899149187e-05,0.0,0.0,0.0,0.0,0.0,0.0,0.0,0.0,0.0
1654869538.002941,33583,1654869538,1109851,imu_link,-6.982828926993534e-05,6.783404387533665e-05,-2.285938899149187e-05,0.0,0.0,0.0,0.0,0.0,0.0,0.0,0.0,0.0
1654869538.013212,33584,1654869538,11107940,imu_link,-6.976758595556021e-05,6.781562842661515e-05,-2.309812953171786e-05,0.0,0.0,0.0,0.0,0.0,0.0,0.0,0.0,0.0
1654869538.0231664,33585,1654869538,21113277,imu_link,-7.017027382971719e-05,6.764637510059401e-05,-2.236292311863508e-05,0.0,0.0,0.0,0.0,0.0,0.0,0.0,0.0,0.0
1654869538.0334637,33586,1654869538,31114338,imu_link,-7.026935054454952e-05,6.724100967403501e-05,-2.3256510758074e-05,0.0,0.0,0.0,0.0,0.0,0.0,0.0,0.0,0.0
1654869538.043187,33587,1654869538,41110880,imu_link,-7.093472231645137e-05,6.680922524537891e-05,-2.246760777779855e-05,0.0,0.0,0.0,0.0,0.0,0.0,0.0,0.0,0.0
1654869538.0531409,33588,1654869538,51110532,imu_link,-7.093472231645137e-05,6.680922524537891e-05,-2.246760777779855e-05,0.0,0.0,0.0,0.0,0.0,0.0,0.0,0.0,0.0
1654869538.0633574,33589,1654869538,61111926,imu_link,-7.004744111327454e-05,6.740581738995388e-05,-2.3448083084076643e-05,0.0,0.0,0.0,0.0,0.0,0.0,0.0,0.0,0.0
1654869538.0749822,33590,1654869538,71114171,imu_link,-7.016619201749563e-05,6.75739865982905e-05,-2.259339453303255e-05,0.0,0.0,0.0,0.0,0.0,0.0,0.0,0.0,0.0
1654869538.0866911,33591,1654869538,81119528,imu_link,-7.031128188828006e-05,6.725426646880805e-05,-2.309082992724143e-05,0.0,0.0,0.0,0.0,0.0,0.0,0.0,0.0,0.0
1654869538.0948613,33592,1654869538,91108811,imu_link,-7.003523205639794e-05,6.766014848835766e-05,-2.2741409338777885e-05,0.0,0.0,0.0,0.0,0.0,0.0,0.0,0.0,0.0
1654869538.1053061,33593,1654869538,101109019,imu_link,-7.003523205639794e-05,6.766014848835766e-05,-2.2741409338777885e-05,0.0,0.0,0.0,0.0,0.0,0.0,0.0,0.0,0.0
1654869538.1140866,33594,1654869538,111126227,imu_link,-6.982178456382826e-05,6.777083035558462e-05,-2.3065858840709552e-05,0.0,0.0,0.0,0.0,0.0,0.0,0.0,0.0,0.0
1654869538.1235323,33595,1654869538,121112306,imu_link,-6.981078331591561e-05,6.767825107090175e-05,-2.3368989786831662e-05,0.0,0.0,0.0,0.0,0.0,0.0,0.0,0.0,0.0
1654869538.133353,33596,1654869538,131110015,imu_link,-7.015906157903373e-05,6.746064173057675e-05,-2.2951442588237114e-05,0.0,0.0,0.0,0.0,0.0,0.0,0.0,0.0,0.0
1654869538.143625,33597,1654869538,141117019,imu_link,-6.92546964273788e-05,6.824627780588344e-05,-2.3371607312583365e-05,0.0,0.0,0.0,0.0,0.0,0.0,0.0,0.0,0.0
1654869538.1531882,33598,1654869538,151112728,imu_link,-6.92546964273788e-05,6.824627780588344e-05,-2.3371607312583365e-05,0.0,0.0,0.0,0.0,0.0,0.0,0.0,0.0,0.0
1654869538.1631336,33599,1654869538,161110918,imu_link,-6.968418165342882e-05,6.808903708588332e-05,-2.253880120406393e-05,0.0,0.0,0.0,0.0,0.0,0.0,0.0,0.0,0.0
1654869538.1735501,33600,1654869538,171108497,imu_link,-6.98929579812102e-05,6.781014963053167e-05,-2.2732318029738963e-05,0.0,0.0,0.0,0.0,0.0,0.0,0.0,0.0,0.0
1654869538.183287,33601,1654869538,181119816,imu_link,-7.024990918580443e-05,6.752520857844502e-05,-2.2478785467683338e-05,0.0,0.0,0.0,0.0,0.0,0.0,0.0,0.0,0.0
1654869538.1943264,33602,1654869538,191112506,imu_link,-7.034704321995378e-05,6.723303522448987e-05,-2.304370173078496e-05,0.0,0.0,0.0,0.0,0.0,0.0,0.0,0.0,0.0
1654869538.2030609,33603,1654869538,201113140,imu_link,-6.940526509424672e-05,6.80996454320848e-05,-2.3352689822786488e-05,0.0,0.0,0.0,0.0,0.0,0.0,0.0,0.0,0.0
1654869538.2130725,33604,1654869538,211108886,imu_link,-6.940526509424672e-05,6.80996454320848e-05,-2.3352689822786488e-05,0.0,0.0,0.0,0.0,0.0,0.0,0.0,0.0,0.0
1654869538.2236254,33605,1654869538,221109835,imu_link,-7.026197999948636e-05,6.742787809344009e-05,-2.2731815988663584e-05,0.0,0.0,0.0,0.0,0.0,0.0,0.0,0.0,0.0
1654869538.234082,33606,1654869538,231120617,imu_link,-7.016336894594133e-05,6.749894237145782e-05,-2.2825299311080016e-05,0.0,0.0,0.0,0.0,0.0,0.0,0.0,0.0,0.0
1654869538.242997,33607,1654869538,241111196,imu_link,-6.981520709814504e-05,6.788824975956231e-05,-2.2738115148968063e-05,0.0,0.0,0.0,0.0,0.0,0.0,0.0,0.0,0.0
1654869538.2530148,33608,1654869538,251109405,imu_link,-6.982177001191303e-05,6.793873035348952e-05,-2.25665389734786e-05,0.0,0.0,0.0,0.0,0.0,0.0,0.0,0.0,0.0
1654869538.2661111,33609,1654869538,261118113,imu_link,-6.982177001191303e-05,6.793873035348952e-05,-2.25665389734786e-05,0.0,0.0,0.0,0.0,0.0,0.0,0.0,0.0,0.0
1654869538.274575,33610,1654869538,271122654,imu_link,-6.946158828213811e-05,6.824348383815959e-05,-2.2757731130695902e-05,0.0,0.0,0.0,0.0,0.0,0.0,0.0,0.0,0.0
1654869538.2838044,33611,1654869538,281118419,imu_link,-6.960212340345606e-05,6.787915481254458e-05,-2.340865285077598e-05,0.0,0.0,0.0,0.0,0.0,0.0,0.0,0.0,0.0
1654869538.2944474,33612,1654869538,291113553,imu_link,-7.008361717453226e-05,6.740867684129626e-05,-2.3331485863309354e-05,0.0,0.0,0.0,0.0,0.0,0.0,0.0,0.0,0.0
1654869538.3045964,33613,1654869538,301121576,imu_link,-6.906969792908058e-05,6.814717926317826e-05,-2.419373777229339e-05,0.0,0.0,0.0,0.0,0.0,0.0,0.0,0.0,0.0
1654869538.317102,33614,1654869538,311137191,imu_link,-6.913566903676838e-05,6.830163329141214e-05,-2.3561533453175798e-05,0.0,0.0,0.0,0.0,0.0,0.0,0.0,0.0,0.0
1654869538.3238206,33615,1654869538,321117327,imu_link,-6.961312465136871e-05,6.786687299609184e-05,-2.341155595786404e-05,0.0,0.0,0.0,0.0,0.0,0.0,0.0,0.0,0.0
1654869538.3346696,33616,1654869538,331116276,imu_link,-6.961211329326034e-05,6.786810990888625e-05,-2.341095205338206e-05,0.0,0.0,0.0,0.0,0.0,0.0,0.0,0.0,0.0
1654869538.343981,33617,1654869538,341116817,imu_link,-7.044638186926022e-05,6.739381205989048e-05,-2.2257147065829486e-05,0.0,0.0,0.0,0.0,0.0,0.0,0.0,0.0,0.0
1654869538.3550222,33618,1654869538,351123655,imu_link,-6.95353010087274e-05,6.794221553718671e-05,-2.3424281607731245e-05,0.0,0.0,0.0,0.0,0.0,0.0,0.0,0.0,0.0
1654869538.3628411,33619,1654869538,361092477,imu_link,-7.030148844933137e-05,6.718028453178704e-05,-2.3334743673331104e-05,0.0,0.0,0.0,0.0,0.0,0.0,0.0,0.0,0.0
1654869538.3729546,33620,1654869538,371107851,imu_link,-7.030148844933137e-05,6.718028453178704e-05,-2.3334743673331104e-05,0.0,0.0,0.0,0.0,0.0,0.0,0.0,0.0,0.0
1654869538.3829744,33621,1654869538,381204183,imu_link,-6.971890979912132e-05,6.779706018278375e-05,-2.3298769519897178e-05,0.0,0.0,0.0,0.0,0.0,0.0,0.0,0.0,0.0
1654869538.396616,33622,1654869538,391112249,imu_link,-6.995127478148788e-05,6.761858821846545e-05,-2.3120242985896766e-05,0.0,0.0,0.0,0.0,0.0,0.0,0.0,0.0,0.0
1654869538.4032207,33623,1654869538,401108383,imu_link,-6.966190994717181e-05,6.771949847461656e-05,-2.3691523892921396e-05,0.0,0.0,0.0,0.0,0.0,0.0,0.0,0.0,0.0
1654869538.4127858,33624,1654869538,411109518,imu_link,-7.044302765280008e-05,6.725180719513446e-05,-2.2693053324474022e-05,0.0,0.0,0.0,0.0,0.0,0.0,0.0,0.0,0.0
1654869538.4227228,33625,1654869538,421106893,imu_link,-7.044302765280008e-05,6.725180719513446e-05,-2.2693053324474022e-05,0.0,0.0,0.0,0.0,0.0,0.0,0.0,0.0,0.0
1654869538.4336548,33626,1654869538,431115508,imu_link,-7.046490645734593e-05,6.73730464768596e-05,-2.2261374397203326e-05,0.0,0.0,0.0,0.0,0.0,0.0,0.0,0.0,0.0
1654869538.44281,33627,1654869538,441114550,imu_link,-6.991608097450808e-05,6.766263686586171e-05,-2.3097809389582835e-05,0.0,0.0,0.0,0.0,0.0,0.0,0.0,0.0,0.0
1654869538.4530878,33628,1654869538,451108611,imu_link,-6.978650344535708e-05,6.749792373739183e-05,-2.3955672077136114e-05,0.0,0.0,0.0,0.0,0.0,0.0,0.0,0.0,0.0
1654869538.4626358,33629,1654869538,461070581,imu_link,-6.953415140742436e-05,6.783964636269957e-05,-2.3723066988168284e-05,0.0,0.0,0.0,0.0,0.0,0.0,0.0,0.0,0.0
1654869538.4737928,33630,1654869538,471109231,imu_link,-6.953415140742436e-05,6.783964636269957e-05,-2.3723066988168284e-05,0.0,0.0,0.0,0.0,0.0,0.0,0.0,0.0,0.0
1654869538.4826112,33631,1654869538,481110810,imu_link,-6.962942279642448e-05,6.781351839890704e-05,-2.3517419322161004e-05,0.0,0.0,0.0,0.0,0.0,0.0,0.0,0.0,0.0
1654869538.4927094,33632,1654869538,491107037,imu_link,-7.030808774288744e-05,6.753673369530588e-05,-2.226121796411462e-05,0.0,0.0,0.0,0.0,0.0,0.0,0.0,0.0,0.0
1654869538.503008,33633,1654869538,501106412,imu_link,-7.09413070580922e-05,6.660583312623203e-05,-2.3043303372105584e-05,0.0,0.0,0.0,0.0,0.0,0.0,0.0,0.0,0.0
1654869538.5133681,33634,1654869538,511107732,imu_link,-7.054376328596845e-05,6.68733409838751e-05,-2.3484748453483917e-05,0.0,0.0,0.0,0.0,0.0,0.0,0.0,0.0,0.0
1654869538.5227535,33635,1654869538,521109181,imu_link,-7.054376328596845e-05,6.68733409838751e-05,-2.3484748453483917e-05,0.0,0.0,0.0,0.0,0.0,0.0,0.0,0.0,0.0
1654869538.5330267,33636,1654869538,531107278,imu_link,-6.995187141001225e-05,6.767018203390762e-05,-2.29670295084361e-05,0.0,0.0,0.0,0.0,0.0,0.0,0.0,0.0,0.0
1654869538.5428326,33637,1654869538,541106524,imu_link,-7.069322600727901e-05,6.698190554743633e-05,-2.2713278667652048e-05,0.0,0.0,0.0,0.0,0.0,0.0,0.0,0.0,0.0
1654869538.553178,33638,1654869538,551107843,imu_link,-7.023905345704406e-05,6.740172830177471e-05,-2.2879761672811583e-05,0.0,0.0,0.0,0.0,0.0,0.0,0.0,0.0,0.0
1654869538.562544,33639,1654869538,561112126,imu_link,-6.987070082686841e-05,6.743334961356595e-05,-2.3892045646789484e-05,0.0,0.0,0.0,0.0,0.0,0.0,0.0,0.0,0.0
1654869538.572684,33640,1654869538,571105871,imu_link,-6.974113784963265e-05,6.718781514791772e-05,-2.4939357899711467e-05,0.0,0.0,0.0,0.0,0.0,0.0,0.0,0.0,0.0
1654869538.582816,33641,1654869538,581066712,imu_link,-6.974113784963265e-05,6.718781514791772e-05,-2.4939357899711467e-05,0.0,0.0,0.0,0.0,0.0,0.0,0.0,0.0,0.0
1654869538.5929568,33642,1654869538,591089363,imu_link,-7.01995741110295e-05,6.693723844364285e-05,-2.4319244403159246e-05,0.0,0.0,0.0,0.0,0.0,0.0,0.0,0.0,0.0
1654869538.6026738,33643,1654869538,601108774,imu_link,-7.020956400083378e-05,6.701552774757147e-05,-2.4073540771496482e-05,0.0,0.0,0.0,0.0,0.0,0.0,0.0,0.0,0.0
1654869538.6129918,33644,1654869538,611106353,imu_link,-7.018227915978059e-05,6.77250063745305e-05,-2.208554360549897e-05,0.0,0.0,0.0,0.0,0.0,0.0,0.0,0.0,0.0
1654869538.6228333,33645,1654869538,621111969,imu_link,-7.025250670267269e-05,6.732531619491056e-05,-2.306269198015798e-05,0.0,0.0,0.0,0.0,0.0,0.0,0.0,0.0,0.0
1654869538.6340349,33646,1654869538,631109177,imu_link,-7.025250670267269e-05,6.732531619491056e-05,-2.306269198015798e-05,0.0,0.0,0.0,0.0,0.0,0.0,0.0,0.0,0.0
1654869538.6427598,33647,1654869538,641112349,imu_link,-6.999063771218061e-05,6.769537867512554e-05,-2.2773787350161e-05,0.0,0.0,0.0,0.0,0.0,0.0,0.0,0.0,0.0
1654869538.6531425,33648,1654869538,651106965,imu_link,-6.988696259213611e-05,6.772612687200308e-05,-2.2999649445409887e-05,0.0,0.0,0.0,0.0,0.0,0.0,0.0,0.0,0.0
1654869538.6634393,33649,1654869538,661113117,imu_link,-6.943041807971895e-05,6.838206900283694e-05,-2.2434589482145384e-05,0.0,0.0,0.0,0.0,0.0,0.0,0.0,0.0,0.0
1654869538.6752412,33650,1654869538,671115529,imu_link,-6.976639269851148e-05,6.796906382078305e-05,-2.264637078042142e-05,0.0,0.0,0.0,0.0,0.0,0.0,0.0,0.0,0.0
1654869538.6826935,33651,1654869538,681110627,imu_link,-6.976639269851148e-05,6.796906382078305e-05,-2.264637078042142e-05,0.0,0.0,0.0,0.0,0.0,0.0,0.0,0.0,0.0
1654869538.6928933,33652,1654869538,691110372,imu_link,-7.02551769791171e-05,6.75024202791974e-05,-2.253072671010159e-05,0.0,0.0,0.0,0.0,0.0,0.0,0.0,0.0,0.0
1654869538.7027736,33653,1654869538,701110192,imu_link,-7.016059680609033e-05,6.719146040268242e-05,-2.372336712141987e-05,0.0,0.0,0.0,0.0,0.0,0.0,0.0,0.0,0.0
1654869538.7146165,33654,1654869538,711107660,imu_link,-6.996630690991879e-05,6.741668767062947e-05,-2.3658098143641837e-05,0.0,0.0,0.0,0.0,0.0,0.0,0.0,0.0,0.0
1654869538.722752,33655,1654869538,721111905,imu_link,-6.909246440045536e-05,6.81767487549223e-05,-2.404500628472306e-05,0.0,0.0,0.0,0.0,0.0,0.0,0.0,0.0,0.0
1654869538.7328966,33656,1654869538,731107429,imu_link,-7.01934695825912e-05,6.714672053931281e-05,-2.375278199906461e-05,0.0,0.0,0.0,0.0,0.0,0.0,0.0,0.0,0.0
1654869538.74283,33657,1654869538,741113174,imu_link,-7.01934695825912e-05,6.714672053931281e-05,-2.375278199906461e-05,0.0,0.0,0.0,0.0,0.0,0.0,0.0,0.0,0.0
1654869538.7540984,33658,1654869538,751109382,imu_link,-7.020845077931881e-05,6.698489596601576e-05,-2.416188181086909e-05,0.0,0.0,0.0,0.0,0.0,0.0,0.0,0.0,0.0
1654869538.762655,33659,1654869538,761113331,imu_link,-7.052099681459367e-05,6.689996371278539e-05,-2.3477317881770432e-05,0.0,0.0,0.0,0.0,0.0,0.0,0.0,0.0,0.0
1654869538.7726605,33660,1654869538,771105540,imu_link,-7.010074477875605e-05,6.703736289637163e-05,-2.4328555809915997e-05,0.0,0.0,0.0,0.0,0.0,0.0,0.0,0.0,0.0
1654869538.7829204,33661,1654869538,781109452,imu_link,-6.966142973396927e-05,6.774880603188649e-05,-2.3608979972777888e-05,0.0,0.0,0.0,0.0,0.0,0.0,0.0,0.0,0.0
1654869538.794024,33662,1654869538,791108661,imu_link,-6.966142973396927e-05,6.774880603188649e-05,-2.3608979972777888e-05,0.0,0.0,0.0,0.0,0.0,0.0,0.0,0.0,0.0
1654869538.8027437,33663,1654869538,801112610,imu_link,-6.936005229363218e-05,6.787419260945171e-05,-2.4130406018230133e-05,0.0,0.0,0.0,0.0,0.0,0.0,0.0,0.0,0.0
1654869538.8128188,33664,1654869538,811107855,imu_link,-7.016147719696164e-05,6.712507456541061e-05,-2.3907965442049317e-05,0.0,0.0,0.0,0.0,0.0,0.0,0.0,0.0,0.0
1654869538.8233168,33665,1654869538,821119267,imu_link,-7.014301081653684e-05,6.676154589513317e-05,-2.4957025743788108e-05,0.0,0.0,0.0,0.0,0.0,0.0,0.0,0.0,0.0
1654869538.8346248,33666,1654869538,831109754,imu_link,-7.000026380410418e-05,6.726098945364356e-05,-2.399838740529958e-05,0.0,0.0,0.0,0.0,0.0,0.0,0.0,0.0,0.0
1654869538.8429322,33667,1654869538,841270138,imu_link,-7.000026380410418e-05,6.726098945364356e-05,-2.399838740529958e-05,0.0,0.0,0.0,0.0,0.0,0.0,0.0,0.0,0.0
1654869538.8530107,33668,1654869538,851107763,imu_link,-6.99946322129108e-05,6.738023512298241e-05,-2.3678150682826526e-05,0.0,0.0,0.0,0.0,0.0,0.0,0.0,0.0,0.0
1654869538.8631663,33669,1654869538,861114101,imu_link,-7.031359564280137e-05,6.728871812811121e-05,-2.298314757354092e-05,0.0,0.0,0.0,0.0,0.0,0.0,0.0,0.0,0.0
1654869538.8743014,33670,1654869538,871111846,imu_link,-7.03582918504253e-05,6.706580461468548e-05,-2.349231181142386e-05,0.0,0.0,0.0,0.0,0.0,0.0,0.0,0.0,0.0
1654869538.8826249,33671,1654869538,881110314,imu_link,-7.00904565746896e-05,6.77150092087686e-05,-2.240548565168865e-05,0.0,0.0,0.0,0.0,0.0,0.0,0.0,0.0,0.0
1654869538.8932228,33672,1654869538,891111097,imu_link,-7.00904565746896e-05,6.77150092087686e-05,-2.240548565168865e-05,0.0,0.0,0.0,0.0,0.0,0.0,0.0,0.0,0.0
1654869538.9030507,33673,1654869538,901108490,imu_link,-6.98504300089553e-05,6.796736124670133e-05,-2.239097739220597e-05,0.0,0.0,0.0,0.0,0.0,0.0,0.0,0.0,0.0
1654869538.91285,33674,1654869538,911109421,imu_link,-6.983541243243963e-05,6.772096821805462e-05,-2.3170790882431902e-05,0.0,0.0,0.0,0.0,0.0,0.0,0.0,0.0,0.0
1654869538.922923,33675,1654869538,921092075,imu_link,-7.008937245700508e-05,6.780448893550783e-05,-2.2136609914014116e-05,0.0,0.0,0.0,0.0,0.0,0.0,0.0,0.0,0.0
1654869538.933839,33676,1654869538,931106320,imu_link,-6.994705472607166e-05,6.755242065992206e-05,-2.3325539586949162e-05,0.0,0.0,0.0,0.0,0.0,0.0,0.0,0.0,0.0
1654869538.942997,33677,1654869538,941109491,imu_link,-7.044479571050033e-05,6.725618004566059e-05,-2.2674601495964453e-05,0.0,0.0,0.0,0.0,0.0,0.0,0.0,0.0,0.0
1654869538.9547203,33678,1654869538,951110347,imu_link,-7.044479571050033e-05,6.725618004566059e-05,-2.2674601495964453e-05,0.0,0.0,0.0,0.0,0.0,0.0,0.0,0.0,0.0
1654869538.9628935,33679,1654869538,961115500,imu_link,-7.00030432199128e-05,6.796497473260388e-05,-2.1916563127888367e-05,0.0,0.0,0.0,0.0,0.0,0.0,0.0,0.0,0.0
1654869538.9736695,33680,1654869538,971109486,imu_link,-7.093317253747955e-05,6.730319728376344e-05,-2.0946707081748173e-05,0.0,0.0,0.0,0.0,0.0,0.0,0.0,0.0,0.0
1654869538.9829652,33681,1654869538,981114584,imu_link,-7.02156248735264e-05,6.722835678374395e-05,-2.345450411667116e-05,0.0,0.0,0.0,0.0,0.0,0.0,0.0,0.0,0.0
1654869538.9937305,33682,1654869538,991114736,imu_link,-7.04227204550989e-05,6.740713433828205e-05,-2.229165875178296e-05,0.0,0.0,0.0,0.0,0.0,0.0,0.0,0.0,0.0
1654869539.0027297,33683,1654869539,1110130,imu_link,-7.04227204550989e-05,6.740713433828205e-05,-2.229165875178296e-05,0.0,0.0,0.0,0.0,0.0,0.0,0.0,0.0,0.0
1654869539.013615,33684,1654869539,11106830,imu_link,-7.02231700415723e-05,6.728484004270285e-05,-2.3269216399057768e-05,0.0,0.0,0.0,0.0,0.0,0.0,0.0,0.0,0.0
1654869539.0230834,33685,1654869539,21111206,imu_link,-7.01575045241043e-05,6.704072438878939e-05,-2.4155040591722354e-05,0.0,0.0,0.0,0.0,0.0,0.0,0.0,0.0,0.0
1654869539.0334396,33686,1654869539,31110007,imu_link,-7.001902122283354e-05,6.758821109542623e-05,-2.3003705791779794e-05,0.0,0.0,0.0,0.0,0.0,0.0,0.0,0.0,0.0
1654869539.04295,33687,1654869539,41114068,imu_link,-7.005405495874584e-05,6.73949034535326e-05,-2.3459688236471266e-05,0.0,0.0,0.0,0.0,0.0,0.0,0.0,0.0,0.0
1654869539.053563,33688,1654869539,51108721,imu_link,-7.005405495874584e-05,6.73949034535326e-05,-2.3459688236471266e-05,0.0,0.0,0.0,0.0,0.0,0.0,0.0,0.0,0.0
1654869539.0630732,33689,1654869539,61126448,imu_link,-6.993563147261739e-05,6.755179492756724e-05,-2.3361539206234738e-05,0.0,0.0,0.0,0.0,0.0,0.0,0.0,0.0,0.0
1654869539.0753999,33690,1654869539,71159395,imu_link,-6.996012962190434e-05,6.760159158147871e-05,-2.3143153157434426e-05,0.0,0.0,0.0,0.0,0.0,0.0,0.0,0.0,0.0
1654869539.0828667,33691,1654869539,81154753,imu_link,-6.99053707649e-05,6.751748878741637e-05,-2.355053038627375e-05,0.0,0.0,0.0,0.0,0.0,0.0,0.0,0.0,0.0
1654869539.0956948,33692,1654869539,91111797,imu_link,-7.015493611106649e-05,6.720824603689834e-05,-2.369254616496619e-05,0.0,0.0,0.0,0.0,0.0,0.0,0.0,0.0,0.0
1654869539.1031506,33693,1654869539,101238592,imu_link,-7.024893420748413e-05,6.738163210684434e-05,-2.290855991304852e-05,0.0,0.0,0.0,0.0,0.0,0.0,0.0,0.0,0.0
1654869539.1128557,33694,1654869539,111110734,imu_link,-7.024893420748413e-05,6.738163210684434e-05,-2.290855991304852e-05,0.0,0.0,0.0,0.0,0.0,0.0,0.0,0.0,0.0
1654869539.1229622,33695,1654869539,121282970,imu_link,-7.00882519595325e-05,6.748574378434569e-05,-2.309352385054808e-05,0.0,0.0,0.0,0.0,0.0,0.0,0.0,0.0,0.0
1654869539.1337497,33696,1654869539,131113151,imu_link,-6.951674731681123e-05,6.771657353965566e-05,-2.4122342438204214e-05,0.0,0.0,0.0,0.0,0.0,0.0,0.0,0.0,0.0
1654869539.1434658,33697,1654869539,141116897,imu_link,-7.013149297563359e-05,6.756715447409078e-05,-2.2721173081663437e-05,0.0,0.0,0.0,0.0,0.0,0.0,0.0,0.0,0.0
1654869539.160515,33698,1654869539,151111366,imu_link,-6.992251292103902e-05,6.820043199695647e-05,-2.143696474377066e-05,0.0,0.0,0.0,0.0,0.0,0.0,0.0,0.0,0.0
1654869539.163621,33699,1654869539,161116352,imu_link,-6.992251292103902e-05,6.820043199695647e-05,-2.143696474377066e-05,0.0,0.0,0.0,0.0,0.0,0.0,0.0,0.0,0.0
1654869539.1729603,33700,1654869539,171108654,imu_link,-7.03134573996067e-05,6.742426921846345e-05,-2.258285712741781e-05,0.0,0.0,0.0,0.0,0.0,0.0,0.0,0.0,0.0
1654869539.1830177,33701,1654869539,181111566,imu_link,-7.061960059218109e-05,6.713876791764051e-05,-2.247791962872725e-05,0.0,0.0,0.0,0.0,0.0,0.0,0.0,0.0,0.0
1654869539.1950018,33702,1654869539,191109423,imu_link,-7.012792775640264e-05,6.760960241081193e-05,-2.2605663616559468e-05,0.0,0.0,0.0,0.0,0.0,0.0,0.0,0.0,0.0
1654869539.2030952,33703,1654869539,201113317,imu_link,-7.010117406025529e-05,6.755585491191596e-05,-2.2848013031762093e-05,0.0,0.0,0.0,0.0,0.0,0.0,0.0,0.0,0.0
1654869539.2130365,33704,1654869539,211163912,imu_link,-7.010117406025529e-05,6.755585491191596e-05,-2.2848013031762093e-05,0.0,0.0,0.0,0.0,0.0,0.0,0.0,0.0,0.0
1654869539.2233007,33705,1654869539,221112346,imu_link,-7.029841799521819e-05,6.73903341521509e-05,-2.2730513592250645e-05,0.0,0.0,0.0,0.0,0.0,0.0,0.0,0.0,0.0
1654869539.2339208,33706,1654869539,231114944,imu_link,-6.965891952859238e-05,6.793968350393698e-05,-2.3061549654812552e-05,0.0,0.0,0.0,0.0,0.0,0.0,0.0,0.0,0.0
1654869539.2432084,33707,1654869539,241109153,imu_link,-7.022318459348753e-05,6.741307151969522e-05,-2.28950066230027e-05,0.0,0.0,0.0,0.0,0.0,0.0,0.0,0.0,0.0
1654869539.2532487,33708,1654869539,251107195,imu_link,-7.034456211840734e-05,6.700476660626009e-05,-2.3706625142949633e-05,0.0,0.0,0.0,0.0,0.0,0.0,0.0,0.0,0.0
1654869539.2629762,33709,1654869539,261111441,imu_link,-7.024318620096892e-05,6.70204681227915e-05,-2.3961458282428794e-05,0.0,0.0,0.0,0.0,0.0,0.0,0.0,0.0,0.0
1654869539.27757,33710,1654869539,271264234,imu_link,-7.024318620096892e-05,6.70204681227915e-05,-2.3961458282428794e-05,0.0,0.0,0.0,0.0,0.0,0.0,0.0,0.0,0.0
1654869539.2834547,33711,1654869539,281112637,imu_link,-6.996581214480102e-05,6.76366180414334e-05,-2.3023323592497036e-05,0.0,0.0,0.0,0.0,0.0,0.0,0.0,0.0,0.0
1654869539.292896,33712,1654869539,291107346,imu_link,-7.046078098937869e-05,6.729735468979925e-05,-2.2502088540932164e-05,0.0,0.0,0.0,0.0,0.0,0.0,0.0,0.0,0.0
1654869539.3028767,33713,1654869539,301112647,imu_link,-7.009782711975276e-05,6.727348227286711e-05,-2.3676420823903754e-05,0.0,0.0,0.0,0.0,0.0,0.0,0.0,0.0,0.0
1654869539.3142402,33714,1654869539,311084469,imu_link,-7.006428495515138e-05,6.753650086466223e-05,-2.3017724743112922e-05,0.0,0.0,0.0,0.0,0.0,0.0,0.0,0.0,0.0
1654869539.3235457,33715,1654869539,321152525,imu_link,-7.006428495515138e-05,6.753650086466223e-05,-2.3017724743112922e-05,0.0,0.0,0.0,0.0,0.0,0.0,0.0,0.0,0.0
1654869539.33363,33716,1654869539,331108589,imu_link,-7.059361814754084e-05,6.689557631034404e-05,-2.3270640667760745e-05,0.0,0.0,0.0,0.0,0.0,0.0,0.0,0.0,0.0
1654869539.3428743,33717,1654869539,341111242,imu_link,-6.974989810260013e-05,6.797225796617568e-05,-2.268754724354949e-05,0.0,0.0,0.0,0.0,0.0,0.0,0.0,0.0,0.0
1654869539.3537421,33718,1654869539,351119821,imu_link,-6.962750921957195e-05,6.784914148738608e-05,-2.3420161596732214e-05,0.0,0.0,0.0,0.0,0.0,0.0,0.0,0.0,0.0
1654869539.363255,33719,1654869539,361112289,imu_link,-6.960155587876216e-05,6.75992778269574e-05,-2.4206638045143336e-05,0.0,0.0,0.0,0.0,0.0,0.0,0.0,0.0,0.0
1654869539.3739486,33720,1654869539,371107591,imu_link,-6.960155587876216e-05,6.75992778269574e-05,-2.4206638045143336e-05,0.0,0.0,0.0,0.0,0.0,0.0,0.0,0.0,0.0
1654869539.3831158,33721,1654869539,381114725,imu_link,-7.003307837294415e-05,6.785200821468607e-05,-2.2169173462316394e-05,0.0,0.0,0.0,0.0,0.0,0.0,0.0,0.0,0.0
1654869539.3947601,33722,1654869539,391120212,imu_link,-6.92681860527955e-05,6.849424244137481e-05,-2.259327629872132e-05,0.0,0.0,0.0,0.0,0.0,0.0,0.0,0.0,0.0
1654869539.402886,33723,1654869539,401111754,imu_link,-6.966396176721901e-05,6.815466622356325e-05,-2.2402555259759538e-05,0.0,0.0,0.0,0.0,0.0,0.0,0.0,0.0,0.0
1654869539.413385,33724,1654869539,411107408,imu_link,-7.004918734310195e-05,6.750684406142682e-05,-2.3150329070631415e-05,0.0,0.0,0.0,0.0,0.0,0.0,0.0,0.0,0.0
1654869539.4235246,33725,1654869539,421118875,imu_link,-7.004918734310195e-05,6.750684406142682e-05,-2.3150329070631415e-05,0.0,0.0,0.0,0.0,0.0,0.0,0.0,0.0,0.0
1654869539.4349768,33726,1654869539,431091438,imu_link,-6.986001244513318e-05,6.751850014552474e-05,-2.368186142120976e-05,0.0,0.0,0.0,0.0,0.0,0.0,0.0,0.0,0.0
1654869539.4427073,33727,1654869539,441107905,imu_link,-6.965905049582943e-05,6.767302693333477e-05,-2.3832288206904195e-05,0.0,0.0,0.0,0.0,0.0,0.0,0.0,0.0,0.0
1654869539.4528067,33728,1654869539,451112169,imu_link,-7.036118768155575e-05,6.71001907903701e-05,-2.3385182430502027e-05,0.0,0.0,0.0,0.0,0.0,0.0,0.0,0.0,0.0
1654869539.4629073,33729,1654869539,461113359,imu_link,-7.054174784570932e-05,6.735425267834216e-05,-2.207408397225663e-05,0.0,0.0,0.0,0.0,0.0,0.0,0.0,0.0,0.0
1654869539.474013,33730,1654869539,471139770,imu_link,-7.01348326401785e-05,6.747148290742189e-05,-2.299357220181264e-05,0.0,0.0,0.0,0.0,0.0,0.0,0.0,0.0,0.0
1654869539.4826663,33731,1654869539,481112444,imu_link,-7.01348326401785e-05,6.747148290742189e-05,-2.299357220181264e-05,0.0,0.0,0.0,0.0,0.0,0.0,0.0,0.0,0.0
1654869539.4928508,33732,1654869539,491111690,imu_link,-7.004827057244256e-05,6.794889486627653e-05,-2.182170828746166e-05,0.0,0.0,0.0,0.0,0.0,0.0,0.0,0.0,0.0
1654869539.503259,33733,1654869539,501111880,imu_link,-7.018294127192348e-05,6.766158185200766e-05,-2.2277003154158592e-05,0.0,0.0,0.0,0.0,0.0,0.0,0.0,0.0,0.0
1654869539.5131695,33734,1654869539,511112496,imu_link,-7.045851089060307e-05,6.734432827215642e-05,-2.236825821455568e-05,0.0,0.0,0.0,0.0,0.0,0.0,0.0,0.0,0.0
1654869539.5239992,33735,1654869539,521105650,imu_link,-7.002548227319494e-05,6.76006093272008e-05,-2.29475372179877e-05,0.0,0.0,0.0,0.0,0.0,0.0,0.0,0.0,0.0
1654869539.5336304,33736,1654869539,531111007,imu_link,-7.002548227319494e-05,6.76006093272008e-05,-2.29475372179877e-05,0.0,0.0,0.0,0.0,0.0,0.0,0.0,0.0,0.0
1654869539.542896,33737,1654869539,541110642,imu_link,-7.013564027147368e-05,6.784050492569804e-05,-2.1878266124986112e-05,0.0,0.0,0.0,0.0,0.0,0.0,0.0,0.0,0.0
1654869539.5545073,33738,1654869539,551116813,imu_link,-7.055987953208387e-05,6.727246363880113e-05,-2.2264763174462132e-05,0.0,0.0,0.0,0.0,0.0,0.0,0.0,0.0,0.0
1654869539.5632067,33739,1654869539,561127818,imu_link,-6.997735908953473e-05,6.756537914043292e-05,-2.319675149919931e-05,0.0,0.0,0.0,0.0,0.0,0.0,0.0,0.0,0.0
1654869539.5732687,33740,1654869539,571109250,imu_link,-7.023756188573316e-05,6.71992966090329e-05,-2.3472095563192852e-05,0.0,0.0,0.0,0.0,0.0,0.0,0.0,0.0,0.0
1654869539.582746,33741,1654869539,581108681,imu_link,-7.023756188573316e-05,6.71992966090329e-05,-2.3472095563192852e-05,0.0,0.0,0.0,0.0,0.0,0.0,0.0,0.0,0.0
1654869539.5942454,33742,1654869539,591103501,imu_link,-7.010404806351289e-05,6.758640665793791e-05,-2.2748597984900698e-05,0.0,0.0,0.0,0.0,0.0,0.0,0.0,0.0,0.0
1654869539.6047206,33743,1654869539,601108358,imu_link,-7.031389395706356e-05,6.746535655111074e-05,-2.245846735604573e-05,0.0,0.0,0.0,0.0,0.0,0.0,0.0,0.0,0.0
1654869539.6134992,33744,1654869539,611110141,imu_link,-7.012407877482474e-05,6.74072653055191e-05,-2.3213695385493338e-05,0.0,0.0,0.0,0.0,0.0,0.0,0.0,0.0,0.0
1654869539.6236858,33745,1654869539,621112813,imu_link,-6.999462493695319e-05,6.764361751265824e-05,-2.2914908186066896e-05,0.0,0.0,0.0,0.0,0.0,0.0,0.0,0.0,0.0
1654869539.638373,33746,1654869539,631114225,imu_link,-7.013817958068103e-05,6.790162296965718e-05,-2.167961429222487e-05,0.0,0.0,0.0,0.0,0.0,0.0,0.0,0.0,0.0
1654869539.6428905,33747,1654869539,641110916,imu_link,-7.016846211627126e-05,6.787322490708902e-05,-2.1670548449037597e-05,0.0,0.0,0.0,0.0,0.0,0.0,0.0,0.0,0.0
1654869539.6534085,33748,1654869539,651106680,imu_link,-7.0178386522457e-05,6.751716864528134e-05,-2.2725000235368498e-05,0.0,0.0,0.0,0.0,0.0,0.0,0.0,0.0,0.0
1654869539.6630533,33749,1654869539,661407205,imu_link,-7.011953857727349e-05,6.771303014829755e-05,-2.2320331481751055e-05,0.0,0.0,0.0,0.0,0.0,0.0,0.0,0.0,0.0
1654869539.6747253,33750,1654869539,671153984,imu_link,-6.994407885940745e-05,6.793797365389764e-05,-2.2186883143149316e-05,0.0,0.0,0.0,0.0,0.0,0.0,0.0,0.0,0.0
1654869539.6832328,33751,1654869539,681111196,imu_link,-7.016277231741697e-05,6.724800186930224e-05,-2.355613287363667e-05,0.0,0.0,0.0,0.0,0.0,0.0,0.0,0.0,0.0
1654869539.693071,33752,1654869539,691112404,imu_link,-7.016277231741697e-05,6.724800186930224e-05,-2.355613287363667e-05,0.0,0.0,0.0,0.0,0.0,0.0,0.0,0.0,0.0
1654869539.703074,33753,1654869539,701110984,imu_link,-7.067471597110853e-05,6.728375592501834e-05,-2.1862759240320884e-05,0.0,0.0,0.0,0.0,0.0,0.0,0.0,0.0,0.0
1654869539.713744,33754,1654869539,711114396,imu_link,-6.990510883042589e-05,6.780202966183424e-05,-2.271915764140431e-05,0.0,0.0,0.0,0.0,0.0,0.0,0.0,0.0,0.0
1654869539.7235913,33755,1654869539,721156788,imu_link,-6.988409586483613e-05,6.754970672773197e-05,-2.352124465687666e-05,0.0,0.0,0.0,0.0,0.0,0.0,0.0,0.0,0.0
1654869539.7334394,33756,1654869539,731069428,imu_link,-7.030389679130167e-05,6.735471106367186e-05,-2.2818978322902694e-05,0.0,0.0,0.0,0.0,0.0,0.0,0.0,0.0,0.0
1654869539.7434144,33757,1654869539,741153447,imu_link,-7.030389679130167e-05,6.735471106367186e-05,-2.2818978322902694e-05,0.0,0.0,0.0,0.0,0.0,0.0,0.0,0.0,0.0
1654869539.7539873,33758,1654869539,751112269,imu_link,-7.054775051074103e-05,6.726576975779608e-05,-2.2323363737086765e-05,0.0,0.0,0.0,0.0,0.0,0.0,0.0,0.0,0.0
1654869539.7635677,33759,1654869539,761107385,imu_link,-6.976260192459449e-05,6.81388410157524e-05,-2.2142174202599563e-05,0.0,0.0,0.0,0.0,0.0,0.0,0.0,0.0,0.0
1654869539.7731562,33760,1654869539,771107261,imu_link,-6.984140782151371e-05,6.780461990274489e-05,-2.2906566300662234e-05,0.0,0.0,0.0,0.0,0.0,0.0,0.0,0.0,0.0
1654869539.7830508,33761,1654869539,781110507,imu_link,-7.026535604381934e-05,6.738831143593416e-05,-2.283846515638288e-05,0.0,0.0,0.0,0.0,0.0,0.0,0.0,0.0,0.0
1654869539.7933884,33762,1654869539,791110105,imu_link,-7.026535604381934e-05,6.738831143593416e-05,-2.283846515638288e-05,0.0,0.0,0.0,0.0,0.0,0.0,0.0,0.0,0.0
1654869539.8032634,33763,1654869539,801109425,imu_link,-6.980714533710852e-05,6.776703958166763e-05,-2.3121216145227663e-05,0.0,0.0,0.0,0.0,0.0,0.0,0.0,0.0,0.0
1654869539.8133688,33764,1654869539,811106726,imu_link,-7.017845200607553e-05,6.746110011590645e-05,-2.2890699256095104e-05,0.0,0.0,0.0,0.0,0.0,0.0,0.0,0.0,0.0
