Time,header.seq,header.stamp.secs,header.stamp.nsecs,header.frame_id,vector.x,vector.y,vector.z
1654869536.2647014,33361,1654869536,100540401,xsens_imu_link,0.2144794464111328,-0.09326767921447754,0.9616057872772217
1654869536.264825,33362,1654869536,111546637,xsens_imu_link,0.21593856811523438,-0.09325575828552246,0.9611368179321289
1654869536.2649395,33363,1654869536,122300241,xsens_imu_link,0.21494746208190918,-0.09181427955627441,0.9621059894561768
1654869536.2650402,33364,1654869536,130949458,xsens_imu_link,0.21592450141906738,-0.09278583526611328,0.9625952243804932
1654869536.2651157,33365,1654869536,141791723,xsens_imu_link,0.21639561653137207,-0.09231376647949219,0.9640591144561768
1654869536.2652156,33366,1654869536,150298894,xsens_imu_link,0.21738672256469727,-0.09375524520874023,0.9630897045135498
1654869536.2652886,33367,1654869536,162984321,xsens_imu_link,0.21593689918518066,-0.09276509284973145,0.9606547355651855
1654869536.2653227,33368,1654869536,171475066,xsens_imu_link,0.21688055992126465,-0.09132504463195801,0.9626157283782959
1654869536.2653701,33369,1654869536,180748059,xsens_imu_link,0.21689510345458984,-0.09278130531311035,0.9626059532165527
1654869536.2654371,33370,1654869536,191983911,xsens_imu_link,0.21591639518737793,-0.09230566024780273,0.9630835056304932
1654869536.2655122,33371,1654869536,203333792,xsens_imu_link,0.21641135215759277,-0.09228777885437012,0.9616334438323975
1654869536.2655768,33372,1654869536,212343228,xsens_imu_link,0.21543431282043457,-0.09230256080627441,0.9625933170318604
1654869536.2656195,33373,1654869536,220796031,xsens_imu_link,0.2154085636138916,-0.08938479423522949,0.9621274471282959
1654869536.2657444,33374,1654869536,230317120,xsens_imu_link,0.21737885475158691,-0.09327507019042969,0.9635782241821289
1654869536.2659407,33375,1654869536,241439311,xsens_imu_link,0.2169027328491211,-0.09227514266967773,0.9606688022613525
1654869536.2661204,33376,1654869536,250851370,xsens_imu_link,0.2173771858215332,-0.09179806709289551,0.9616472721099854
1654869536.2662473,33377,1654869536,262002634,xsens_imu_link,0.2164144515991211,-0.09228253364562988,0.9611485004425049
1654869536.2814393,33378,1654869536,271894421,xsens_imu_link,0.21689653396606445,-0.09327197074890137,0.963087797164917
1654869536.2838948,33379,1654869536,282493942,xsens_imu_link,0.21641278266906738,-0.09179186820983887,0.9606664180755615
1654869536.2916033,33380,1654869536,290906804,xsens_imu_link,0.21692657470703125,-0.09470248222351074,0.9606525897979736
1654869536.3020527,33381,1654869536,301446977,xsens_imu_link,0.21740412712097168,-0.09421992301940918,0.9611461162567139
1654869536.3142118,33382,1654869536,312187859,xsens_imu_link,0.21591496467590332,-0.09378814697265625,0.9654994010925293
1654869536.3237112,33383,1654869536,322795768,xsens_imu_link,0.21690940856933594,-0.0942375659942627,0.9625961780548096
1654869536.3340871,33384,1654869536,333251187,xsens_imu_link,0.21737408638000488,-0.0927896499633789,0.9635813236236572
1654869536.3427546,33385,1654869536,341592239,xsens_imu_link,0.21642565727233887,-0.09374403953552246,0.9616236686706543
1654869536.3535209,33386,1654869536,352151595,xsens_imu_link,0.21838617324829102,-0.09567713737487793,0.9616320133209229
1654869536.3681343,33387,1654869536,362816871,xsens_imu_link,0.217393159866333,-0.09374499320983887,0.9621195793151855
1654869536.3736813,33388,1654869536,371262972,xsens_imu_link,0.21739506721496582,-0.09522223472595215,0.96405029296875
1654869536.3825517,33389,1654869536,381882103,xsens_imu_link,0.2164289951324463,-0.09472537040710449,0.9625875949859619
1654869536.3958025,33390,1654869536,392423757,xsens_imu_link,0.21689343452453613,-0.09229087829589844,0.9621241092681885
1654869536.4039385,33391,1654869536,402938079,xsens_imu_link,0.2173914909362793,-0.09325432777404785,0.9616377353668213
1654869536.4137564,33392,1654869536,411314740,xsens_imu_link,0.21982288360595703,-0.09471511840820312,0.9631097316741943
1654869536.422609,33393,1654869536,421799323,xsens_imu_link,0.2178957462310791,-0.0942070484161377,0.9601812362670898
1654869536.4345984,33394,1654869536,432368402,xsens_imu_link,0.21935677528381348,-0.095672607421875,0.9616427421569824
1654869536.444582,33395,1654869536,442860818,xsens_imu_link,0.21742510795593262,-0.09665250778198242,0.9616148471832275
1654869536.4539955,33396,1654869536,451236219,xsens_imu_link,0.21694111824035645,-0.09615874290466309,0.9606428146362305
1654869536.4631913,33397,1654869536,461869756,xsens_imu_link,0.21690130233764648,-0.09375739097595215,0.9630844593048096
1654869536.4743083,33398,1654869536,472859290,xsens_imu_link,0.21882057189941406,-0.0918118953704834,0.9636037349700928
1654869536.4835868,33399,1654869536,482842220,xsens_imu_link,0.2173900604248047,-0.09375,0.9626047611236572
1654869536.4919984,33400,1654869536,491226676,xsens_imu_link,0.21643519401550293,-0.09471511840820312,0.9616172313690186
1654869536.5024557,33401,1654869536,501798717,xsens_imu_link,0.2169203758239746,-0.09471297264099121,0.9616227149963379
1654869536.51432,33402,1654869536,512772215,xsens_imu_link,0.21642565727233887,-0.09374403953552246,0.9616236686706543
1654869536.5248892,33403,1654869536,522851805,xsens_imu_link,0.21592926979064941,-0.09327125549316406,0.9625921249389648
1654869536.5335534,33404,1654869536,531255704,xsens_imu_link,0.21740126609802246,-0.09521174430847168,0.9630799293518066
1654869536.5425823,33405,1654869536,541792100,xsens_imu_link,0.21885061264038086,-0.09324216842651367,0.9611687660217285
1654869536.5545185,33406,1654869536,552855943,xsens_imu_link,0.21982932090759277,-0.09470486640930176,0.9621396064758301
1654869536.5640888,33407,1654869536,562999641,xsens_imu_link,0.2174088954925537,-0.09470558166503906,0.9611430168151855
1654869536.572018,33408,1654869536,571388097,xsens_imu_link,0.2174057960510254,-0.09372401237487793,0.960179328918457
1654869536.582907,33409,1654869536,581998506,xsens_imu_link,0.2159433364868164,-0.09374117851257324,0.9611334800720215
1654869536.5937843,33410,1654869536,590460161,xsens_imu_link,0.21550250053405762,-0.09662985801696777,0.9586832523345947
1654869536.6047885,33411,1654869536,603273136,xsens_imu_link,0.21884608268737793,-0.09472990036010742,0.9640696048736572
1654869536.6138096,33412,1654869536,612192762,xsens_imu_link,0.21788930892944336,-0.09421753883361816,0.9611513614654541
1654869536.6215997,33413,1654869536,620986525,xsens_imu_link,0.21690607070922852,-0.09325647354125977,0.961632490158081
1654869536.634096,33414,1654869536,631560955,xsens_imu_link,0.2169175148010254,-0.09570455551147461,0.9635567665100098
1654869536.64329,33415,1654869536,642392795,xsens_imu_link,0.2174077033996582,-0.09520149230957031,0.9621098041534424
1654869536.6515744,33416,1654869536,650742031,xsens_imu_link,0.21834778785705566,-0.09277987480163574,0.963106632232666
1654869536.6621358,33417,1654869536,661270260,xsens_imu_link,0.21689963340759277,-0.09228038787841797,0.9611539840698242
1654869536.673803,33418,1654869536,671802915,xsens_imu_link,0.2193279266357422,-0.09275984764099121,0.9616620540618896
1654869536.68343,33419,1654869536,682366327,xsens_imu_link,0.21835732460021973,-0.0937507152557373,0.9631001949310303
1654869536.6914074,33420,1654869536,690773041,xsens_imu_link,0.21787524223327637,-0.09374761581420898,0.9626100063323975
1654869536.7028315,33421,1654869536,702151661,xsens_imu_link,0.21887946128845215,-0.0951683521270752,0.959700345993042
1654869536.7139287,33422,1654869536,711059492,xsens_imu_link,0.2188587188720703,-0.09470915794372559,0.9621291160583496
1654869536.722875,33423,1654869536,721610053,xsens_imu_link,0.2183685302734375,-0.09422588348388672,0.9621267318725586
1654869536.7338028,33424,1654869536,732269866,xsens_imu_link,0.21932172775268555,-0.09375667572021484,0.9640812873840332
1654869536.7415714,33425,1654869536,740680561,xsens_imu_link,0.220306396484375,-0.09224891662597656,0.959735631942749
1654869536.7544641,33426,1654869536,753385135,xsens_imu_link,0.2183830738067627,-0.09568238258361816,0.9621171951293945
1654869536.7632759,33427,1654869536,762468603,xsens_imu_link,0.2188584804534912,-0.09372234344482422,0.9606802463531494
1654869536.7715383,33428,1654869536,770854374,xsens_imu_link,0.21984553337097168,-0.09665155410766602,0.9626116752624512
1654869536.782264,33429,1654869536,781531538,xsens_imu_link,0.21741366386413574,-0.09420418739318848,0.9596908092498779
1654869536.7934933,33430,1654869536,792107412,xsens_imu_link,0.2183668613433838,-0.0937352180480957,0.9616448879241943
1654869536.8033156,33431,1654869536,802674028,xsens_imu_link,0.21788787841796875,-0.09471368789672852,0.96211838722229
1654869536.811846,33432,1654869536,811034967,xsens_imu_link,0.21694588661193848,-0.09664416313171387,0.960639476776123
1654869536.822234,33433,1654869536,821541623,xsens_imu_link,0.21934890747070312,-0.09519243240356445,0.9621310234069824
1654869536.8329854,33434,1654869536,832103110,xsens_imu_link,0.21933603286743164,-0.09422636032104492,0.9626226425170898
1654869536.8433406,33435,1654869536,842719407,xsens_imu_link,0.2178783416748047,-0.09374260902404785,0.9621248245239258
1654869536.8516917,33436,1654869536,851107900,xsens_imu_link,0.21885371208190918,-0.09323692321777344,0.9606835842132568
1654869536.8634493,33437,1654869536,862756966,xsens_imu_link,0.21933889389038086,-0.09323477745056152,0.9606888294219971
1654869536.873399,33438,1654869536,871148903,xsens_imu_link,0.21691226959228516,-0.0932459831237793,0.9606623649597168
1654869536.8849146,33439,1654869536,883950620,xsens_imu_link,0.21741533279418945,-0.0946950912475586,0.9601728916168213
1654869536.8935065,33440,1654869536,892361222,xsens_imu_link,0.21884584426879883,-0.09275674819946289,0.9611718654632568
1654869536.9017367,33441,1654869536,901062158,xsens_imu_link,0.21789240837097168,-0.09421229362487793,0.9606661796569824
1654869536.9136558,33442,1654869536,912138668,xsens_imu_link,0.2207791805267334,-0.09226775169372559,0.9616813659667969
1654869536.9237273,33443,1654869536,923109017,xsens_imu_link,0.2183682918548584,-0.09323930740356445,0.9606781005859375
1654869536.9326437,33444,1654869536,931695924,xsens_imu_link,0.21883487701416016,-0.09228181838989258,0.9621453285217285
1654869536.9412308,33445,1654869536,940358196,xsens_imu_link,0.21838736534118652,-0.09419441223144531,0.9592161178588867
1654869536.9529922,33446,1654869536,952150142,xsens_imu_link,0.21786880493164062,-0.09375810623168945,0.9635801315307617
1654869536.9634721,33447,1654869536,962744978,xsens_imu_link,0.21788930892944336,-0.0932309627532959,0.959702730178833
1654869536.9719138,33448,1654869536,971215077,xsens_imu_link,0.21593070030212402,-0.09277558326721191,0.9616248607635498
1654869536.9826136,33449,1654869536,981737121,xsens_imu_link,0.2174060344696045,-0.09569716453552246,0.9630768299102783
1654869536.9929314,33450,1654869536,991553895,xsens_imu_link,0.2183685302734375,-0.09422588348388672,0.9621267318725586
1654869537.0033402,33451,1654869537,2071828,xsens_imu_link,0.21790242195129395,-0.09616994857788086,0.9621086120605469
1654869537.0112834,33452,1654869537,10566860,xsens_imu_link,0.21693181991577148,-0.09617447853088379,0.9620981216430664
1654869537.0219078,33453,1654869537,21267099,xsens_imu_link,0.21741080284118652,-0.09618258476257324,0.9630734920501709
1654869537.0353677,33454,1654869537,32254099,xsens_imu_link,0.21884751319885254,-0.09423375129699707,0.9631023406982422
1654869537.0440009,33455,1654869537,43346018,xsens_imu_link,0.21593713760375977,-0.09375166893005371,0.9621036052703857
1654869537.052426,33456,1654869537,51715695,xsens_imu_link,0.21932005882263184,-0.09227967262268066,0.9621505737304688
1654869537.0628734,33457,1654869537,62194763,xsens_imu_link,0.21644020080566406,-0.0952005386352539,0.9616138935089111
1654869537.0729973,33458,1654869537,71489809,xsens_imu_link,0.2159276008605957,-0.09376716613769531,0.9635589122772217
1654869537.0828242,33459,1654869537,82063853,xsens_imu_link,0.21647024154663086,-0.09663057327270508,0.9591786861419678
1654869537.0913181,33460,1654869537,90531357,xsens_imu_link,0.21692991256713867,-0.09469723701477051,0.960167646408081
1654869537.1058385,33461,1654869537,101498784,xsens_imu_link,0.21740460395812988,-0.09619307518005371,0.9640438556671143
1654869537.114944,33462,1654869537,112107547,xsens_imu_link,0.21736788749694824,-0.09280014038085938,0.9645514488220215
1654869537.1233194,33463,1654869537,122784529,xsens_imu_link,0.21593546867370605,-0.0932610034942627,0.9616217613220215
1654869537.1318119,33464,1654869537,131180352,xsens_imu_link,0.2174057960510254,-0.0947108268737793,0.9616279602050781
1654869537.1424773,33465,1654869537,141693603,xsens_imu_link,0.21593713760375977,-0.09375166893005371,0.9621036052703857
1654869537.154548,33466,1654869537,153671357,xsens_imu_link,0.21738052368164062,-0.09277915954589844,0.962611198425293
1654869537.1628394,33467,1654869537,162052200,xsens_imu_link,0.21738505363464355,-0.09227824211120605,0.9611592292785645
1654869537.1713533,33468,1654869537,170461838,xsens_imu_link,0.21741199493408203,-0.09470033645629883,0.9606578350067139
1654869537.1819527,33469,1654869537,181185650,xsens_imu_link,0.21691560745239258,-0.09422731399536133,0.9616258144378662
1654869537.1942594,33470,1654869537,191733435,xsens_imu_link,0.21836376190185547,-0.09374046325683594,0.962130069732666
1654869537.2037156,33471,1654869537,202953161,xsens_imu_link,0.2174088954925537,-0.09470558166503906,0.9611430168151855
1654869537.2111855,33472,1654869537,210639584,xsens_imu_link,0.21788930892944336,-0.09421753883361816,0.9611513614654541
1654869537.2221303,33473,1654869537,221478814,xsens_imu_link,0.21838760375976562,-0.09518122673034668,0.9606649875640869
1654869537.2343833,33474,1654869537,233364963,xsens_imu_link,0.21836376190185547,-0.0947270393371582,0.9635789394378662
1654869537.2425928,33475,1654869537,241719400,xsens_imu_link,0.2174072265625,-0.09421467781066895,0.9606609344482422
1654869537.2543387,33476,1654869537,252227799,xsens_imu_link,0.22032380104064941,-0.09468674659729004,0.9606895446777344
1654869537.2619803,33477,1654869537,261104316,xsens_imu_link,0.21985650062561035,-0.09614014625549316,0.9601895809173584
1654869537.2742655,33478,1654869537,272255806,xsens_imu_link,0.21736931800842285,-0.09230422973632812,0.9635846614837646
1654869537.284365,33479,1654869537,283462681,xsens_imu_link,0.21642088890075684,-0.09325861930847168,0.9616270065307617
1654869537.2934852,33480,1654869537,291842172,xsens_imu_link,0.21691250801086426,-0.09423255920410156,0.9621109962463379
1654869537.303463,33481,1654869537,302670774,xsens_imu_link,0.21885228157043457,-0.09373283386230469,0.9616503715515137
1654869537.3121781,33482,1654869537,311092855,xsens_imu_link,0.21836566925048828,-0.09521770477294922,0.9640607833862305
1654869537.3227053,33483,1654869537,321628641,xsens_imu_link,0.2178800106048584,-0.09423303604125977,0.96260666847229
1654869537.3331065,33484,1654869537,332073878,xsens_imu_link,0.2178971767425537,-0.09371113777160645,0.9592142105102539
1654869537.341395,33485,1654869537,340480182,xsens_imu_link,0.21838140487670898,-0.09519171714782715,0.9616351127624512
1654869537.3527293,33486,1654869537,351109166,xsens_imu_link,0.2183845043182373,-0.09518647193908691,0.9611501693725586
1654869537.3628492,33487,1654869537,361785352,xsens_imu_link,0.21837329864501953,-0.0947115421295166,0.9621236324310303
1654869537.3736267,33488,1654869537,372496646,xsens_imu_link,0.21690654754638672,-0.0952296257019043,0.9645299911499023
1654869537.3816876,33489,1654869537,380885451,xsens_imu_link,0.21884918212890625,-0.09373807907104492,0.9621355533599854
1654869537.392862,33490,1654869537,391830342,xsens_imu_link,0.22032761573791504,-0.0976409912109375,0.9645507335662842
1654869537.403742,33491,1654869537,402682128,xsens_imu_link,0.21738505363464355,-0.09227824211120605,0.9611592292785645
1654869537.411794,33492,1654869537,411073396,xsens_imu_link,0.21884799003601074,-0.09522056579589844,0.9645512104034424
1654869537.4222822,33493,1654869537,421612108,xsens_imu_link,0.21887445449829102,-0.09468293190002441,0.9597036838531494
1654869537.4333265,33494,1654869537,432109545,xsens_imu_link,0.21934103965759277,-0.09569859504699707,0.9640684127807617
1654869537.4434953,33495,1654869537,442668552,xsens_imu_link,0.2203369140625,-0.09663891792297363,0.961646556854248
1654869537.4518688,33496,1654869537,451045358,xsens_imu_link,0.2169046401977539,-0.09473896026611328,0.9640483856201172
1654869537.462767,33497,1654869537,461644344,xsens_imu_link,0.2174077033996582,-0.09520149230957031,0.9621098041534424
1654869537.4736404,33498,1654869537,472181408,xsens_imu_link,0.21740269660949707,-0.09471607208251953,0.9621131420135498
1654869537.4838707,33499,1654869537,482686382,xsens_imu_link,0.2149522304534912,-0.09328603744506836,0.9635517597198486
1654869537.4921315,33500,1654869537,491118981,xsens_imu_link,0.21691083908081055,-0.09374189376831055,0.9616291522979736
1654869537.504028,33501,1654869537,501651990,xsens_imu_link,0.21885895729064941,-0.09569549560546875,0.9635779857635498
1654869537.5138304,33502,1654869537,512133983,xsens_imu_link,0.21789288520812988,-0.09618544578552246,0.9635639190673828
1654869537.5238073,33503,1654869537,522709785,xsens_imu_link,0.21789908409118652,-0.09518861770629883,0.9611449241638184
1654869537.5319898,33504,1654869537,531068130,xsens_imu_link,0.2203066349029541,-0.09422183036804199,0.9626331329345703
1654869537.5436425,33505,1654869537,542236174,xsens_imu_link,0.21838116645812988,-0.09420490264892578,0.9601864814758301
1654869537.5539074,33506,1654869537,551340862,xsens_imu_link,0.21980881690979004,-0.09424519538879395,0.9645681381225586
1654869537.5649426,33507,1654869537,563906803,xsens_imu_link,0.2178957462310791,-0.0942070484161377,0.9601812362670898
1654869537.5738885,33508,1654869537,572268628,xsens_imu_link,0.21836209297180176,-0.09226322174072266,0.9601995944976807
1654869537.5816839,33509,1654869537,580662026,xsens_imu_link,0.21787047386169434,-0.09424877166748047,0.964061975479126
1654869537.5922549,33510,1654869537,591205164,xsens_imu_link,0.21739625930786133,-0.0947263240814209,0.9630832672119141
1654869537.6038818,33511,1654869537,601732821,xsens_imu_link,0.21692824363708496,-0.09420633316040039,0.9596855640411377
1654869537.6141222,33512,1654869537,612240146,xsens_imu_link,0.21884918212890625,-0.09472465515136719,0.9635844230651855
1654869537.6219695,33513,1654869537,620781738,xsens_imu_link,0.21498894691467285,-0.09569263458251953,0.9615950584411621
1654869537.6336226,33514,1654869537,631425000,xsens_imu_link,0.21786713600158691,-0.09228110313415527,0.9616494178771973
1654869537.6437063,33515,1654869537,641991821,xsens_imu_link,0.21739459037780762,-0.09324908256530762,0.9611527919769287
1654869537.6509838,33516,1654869537,650401088,xsens_imu_link,0.22028589248657227,-0.09277606010437012,0.9636130332946777
1654869537.6618748,33517,1654869537,660900766,xsens_imu_link,0.21886992454528809,-0.0951840877532959,0.9611556529998779
1654869537.6735551,33518,1654869537,671720072,xsens_imu_link,0.21791839599609375,-0.09811663627624512,0.9625809192657471
1654869537.6832798,33519,1654869537,682139328,xsens_imu_link,0.21885061264038086,-0.09324216842651367,0.9611687660217285
1654869537.6916318,33520,1654869537,690520875,xsens_imu_link,0.2129838466644287,-0.08988642692565918,0.962583065032959
1654869537.7029233,33521,1654869537,701252464,xsens_imu_link,0.21644139289855957,-0.09470462799072266,0.9606471061706543
1654869537.7154193,33522,1654869537,713491369,xsens_imu_link,0.21930265426635742,-0.09181499481201172,0.9640941619873047
1654869537.723519,33523,1654869537,722011259,xsens_imu_link,0.21837186813354492,-0.09520721435546875,0.9630904197692871
1654869537.7312913,33524,1654869537,730392732,xsens_imu_link,0.21835112571716309,-0.09277462959289551,0.9626216888427734
1654869537.7420413,33525,1654869537,741301995,xsens_imu_link,0.2174057960510254,-0.09372401237487793,0.960179328918457
1654869537.7538772,33526,1654869537,751979440,xsens_imu_link,0.21787381172180176,-0.0952303409576416,0.9650256633758545
1654869537.7634163,33527,1654869537,762712955,xsens_imu_link,0.2135152816772461,-0.09424805641174316,0.962073802947998
1654869537.7717845,33528,1654869537,770782854,xsens_imu_link,0.21835732460021973,-0.0937507152557373,0.9631001949310303
1654869537.7820735,33529,1654869537,781355990,xsens_imu_link,0.21691274642944336,-0.09521913528442383,0.9635598659515381
1654869537.7934027,33530,1654869537,792173962,xsens_imu_link,0.21641159057617188,-0.09426069259643555,0.9645309448242188
1654869537.8034043,33531,1654869537,802691065,xsens_imu_link,0.217393159866333,-0.09473156929016113,0.9635684490203857
1654869537.8117049,33532,1654869537,811001986,xsens_imu_link,0.21838593482971191,-0.09469056129455566,0.9601833820343018
1654869537.8230064,33533,1654869537,821521866,xsens_imu_link,0.219818115234375,-0.09324312210083008,0.9616641998291016
1654869537.8331072,33534,1654869537,832099909,xsens_imu_link,0.21934056282043457,-0.09372544288635254,0.9611706733703613
1654869537.843957,33535,1654869537,842600216,xsens_imu_link,0.2174217700958252,-0.09567117691040039,0.9606513977050781
1654869537.853555,33536,1654869537,850983225,xsens_imu_link,0.21641302108764648,-0.09277844429016113,0.9621152877807617
1654869537.8628595,33537,1654869537,861624024,xsens_imu_link,0.21787524223327637,-0.09374761581420898,0.9626100063323975
1654869537.8751643,33538,1654869537,872723202,xsens_imu_link,0.21840357780456543,-0.09712815284729004,0.9611372947692871
1654869537.8842108,33539,1654869537,883229360,xsens_imu_link,0.21789097785949707,-0.09470844268798828,0.9616332054138184
1654869537.8926167,33540,1654869537,891619203,xsens_imu_link,0.21834158897399902,-0.09180378913879395,0.9626281261444092
1654869537.9038463,33541,1654869537,902716584,xsens_imu_link,0.21740102767944336,-0.09422516822814941,0.9616310596466064
1654869537.912448,33542,1654869537,911189218,xsens_imu_link,0.21983909606933594,-0.09567570686340332,0.9621331691741943
1654869537.9232917,33543,1654869537,922078446,xsens_imu_link,0.21642732620239258,-0.09423470497131348,0.9621055126190186
1654869537.931816,33544,1654869537,930816749,xsens_imu_link,0.217393159866333,-0.09473156929016113,0.9635684490203857
1654869537.9425495,33545,1654869537,941727216,xsens_imu_link,0.2198343276977539,-0.09519028663635254,0.9621362686157227
1654869537.9542186,33546,1654869537,952414826,xsens_imu_link,0.21545791625976562,-0.09374332427978516,0.9611282348632812
1654869537.9638593,33547,1654869537,963246521,xsens_imu_link,0.2193458080291748,-0.09618401527404785,0.9640650749206543
1654869537.9722831,33548,1654869537,971637085,xsens_imu_link,0.21884608268737793,-0.09472990036010742,0.9640696048736572
1654869537.9832594,33549,1654869537,982153928,xsens_imu_link,0.21886014938354492,-0.09421300888061523,0.9611620903015137
1654869537.9946735,33550,1654869537,991010687,xsens_imu_link,0.21887779235839844,-0.09566426277160645,0.9606673717498779
1654869538.0022113,33551,1654869538,1557954,xsens_imu_link,0.2179117202758789,-0.09615421295166016,0.9606533050537109
1654869538.0136547,33552,1654869538,12064013,xsens_imu_link,0.21933913230895996,-0.09422135353088379,0.9621374607086182
1654869538.0215302,33553,1654869538,20961675,xsens_imu_link,0.2183988094329834,-0.09664273262023926,0.9611403942108154
1654869538.0333066,33554,1654869538,31515536,xsens_imu_link,0.2193441390991211,-0.09569334983825684,0.96358323097229
1654869538.0426931,33555,1654869538,42073045,xsens_imu_link,0.21641778945922852,-0.09425020217895508,0.9635608196258545
1654869538.0515034,33556,1654869538,50823623,xsens_imu_link,0.21836376190185547,-0.0947270393371582,0.9635789394378662
1654869538.0622163,33557,1654869538,61531901,xsens_imu_link,0.21888113021850586,-0.09565901756286621,0.9601824283599854
1654869538.074881,33558,1654869538,72076930,xsens_imu_link,0.2154548168182373,-0.09374856948852539,0.9616131782531738
1654869538.0884497,33559,1654869538,82870499,xsens_imu_link,0.21595287322998047,-0.0947122573852539,0.9611270427703857
1654869538.093843,33560,1654869538,91354093,xsens_imu_link,0.215925931930542,-0.09229016304016113,0.9616281986236572
1654869538.104382,33561,1654869538,101920990,xsens_imu_link,0.21643710136413574,-0.09520578384399414,0.9620990753173828
1654869538.1148157,33562,1654869538,112526348,xsens_imu_link,0.21544861793518066,-0.09375882148742676,0.9625835418701172
1654869538.1240795,33563,1654869538,122885109,xsens_imu_link,0.2164289951324463,-0.09472537040710449,0.9625875949859619
1654869538.1330016,33564,1654869538,131281931,xsens_imu_link,0.2168886661529541,-0.09279179573059082,0.963576078414917
1654869538.143236,33565,1654869538,141795627,xsens_imu_link,0.21787357330322266,-0.09325718879699707,0.9621281623840332
1654869538.154058,33566,1654869538,152456464,xsens_imu_link,0.21788287162780762,-0.09324145317077637,0.9606728553771973
1654869538.1637135,33567,1654869538,162873277,xsens_imu_link,0.21981334686279297,-0.0927577018737793,0.9616672992706299
1654869538.1727405,33568,1654869538,171267210,xsens_imu_link,0.21643829345703125,-0.09470987319946289,0.961132287979126
1654869538.1829932,33569,1654869538,181737187,xsens_imu_link,0.2178940773010254,-0.09371638298034668,0.9596993923187256
1654869538.1933138,33570,1654869538,192358673,xsens_imu_link,0.21738219261169434,-0.09425640106201172,0.9645416736602783
1654869538.2035801,33571,1654869538,202793856,xsens_imu_link,0.21690130233764648,-0.09375739097595215,0.9630844593048096
1654869538.2121897,33572,1654869538,211206066,xsens_imu_link,0.215925931930542,-0.0932765007019043,0.9630770683288574
1654869538.223309,33573,1654869538,221677468,xsens_imu_link,0.21839404106140137,-0.09615731239318848,0.9611437320709229
1654869538.233143,33574,1654869538,232287363,xsens_imu_link,0.21738529205322266,-0.09425115585327148,0.9640567302703857
1654869538.2435443,33575,1654869538,242743600,xsens_imu_link,0.21789908409118652,-0.09518861770629883,0.9611449241638184
1654869538.2522712,33576,1654869538,251170161,xsens_imu_link,0.21886062622070312,-0.0951995849609375,0.9626109600067139
1654869538.2657502,33577,1654869538,261711208,xsens_imu_link,0.21692180633544922,-0.09421682357788086,0.960655689239502
1654869538.2752733,33578,1654869538,272880533,xsens_imu_link,0.21787190437316895,-0.09276652336120605,0.9616460800170898
1654869538.2850583,33579,1654869538,283636474,xsens_imu_link,0.21691393852233887,-0.09373664855957031,0.961144208908081
1654869538.2939355,33580,1654869538,292117254,xsens_imu_link,0.21740126609802246,-0.09521174430847168,0.9630799293518066
1654869538.3028574,33581,1654869538,300620920,xsens_imu_link,0.21692490577697754,-0.09322500228881836,0.9587221145629883
1654869538.3135748,33582,1654869538,311648735,xsens_imu_link,0.21839404106140137,-0.09517073631286621,0.9596948623657227
1654869538.32508,33583,1654869538,322550742,xsens_imu_link,0.21738052368164062,-0.09277915954589844,0.962611198425293
1654869538.3326561,33584,1654869538,331024837,xsens_imu_link,0.21788454055786133,-0.09373211860656738,0.9611546993255615
1654869538.3435204,33585,1654869538,341756447,xsens_imu_link,0.2169651985168457,-0.09858584403991699,0.9606266021728516
1654869538.3548646,33586,1654869538,350972868,xsens_imu_link,0.22130131721496582,-0.09565854072570801,0.9611790180206299
1654869538.364911,33587,1654869538,363361695,xsens_imu_link,0.21792125701904297,-0.09613847732543945,0.959197998046875
1654869538.3725023,33588,1654869538,371847400,xsens_imu_link,0.216933012008667,-0.09469199180603027,0.9596824645996094
1654869538.383252,33589,1654869538,382354449,xsens_imu_link,0.219343900680542,-0.09470701217651367,0.9621343612670898
1654869538.395049,33590,1654869538,393046246,xsens_imu_link,0.21883654594421387,-0.09375882148742676,0.964076042175293
1654869538.4027557,33591,1654869538,401970592,xsens_imu_link,0.2164478302001953,-0.09469413757324219,0.95967698097229
1654869538.4132829,33592,1654869538,412689684,xsens_imu_link,0.217393159866333,-0.09374499320983887,0.9621195793151855
1654869538.4222999,33593,1654869538,421417930,xsens_imu_link,0.21689987182617188,-0.0942533016204834,0.9640514850616455
1654869538.434319,33594,1654869538,433502183,xsens_imu_link,0.21596288681030273,-0.09666943550109863,0.9625692367553711
1654869538.4432878,33595,1654869538,442103862,xsens_imu_link,0.21692705154418945,-0.09568905830383301,0.9621014595031738
1654869538.451267,33596,1654869538,450526497,xsens_imu_link,0.21692395210266113,-0.09569406509399414,0.9625866413116455
1654869538.461979,33597,1654869538,461142336,xsens_imu_link,0.2164607048034668,-0.09664630889892578,0.9606339931488037
1654869538.4741588,33598,1654869538,472553609,xsens_imu_link,0.21888422966003418,-0.09565377235412598,0.9596972465515137
1654869538.4840314,33599,1654869538,483067862,xsens_imu_link,0.21643996238708496,-0.09421372413635254,0.96016526222229
1654869538.492509,33600,1654869538,491451017,xsens_imu_link,0.2188570499420166,-0.09421825408935547,0.9616470336914062
1654869538.502851,33601,1654869538,501946530,xsens_imu_link,0.21836376190185547,-0.09374046325683594,0.962130069732666
1654869538.5156698,33602,1654869538,514040911,xsens_imu_link,0.22031307220458984,-0.09519815444946289,0.9631116390228271
1654869538.523939,33603,1654869538,523009051,xsens_imu_link,0.21837520599365234,-0.09618854522705078,0.9640543460845947
1654869538.5320754,33604,1654869538,531391558,xsens_imu_link,0.21785926818847656,-0.09278726577758789,0.9635865688323975
1654869538.5425866,33605,1654869538,541924142,xsens_imu_link,0.21886181831359863,-0.09470391273498535,0.9616439342498779
1654869538.55364,33606,1654869538,552494891,xsens_imu_link,0.218855619430542,-0.09471416473388672,0.9626142978668213
1654869538.5646856,33607,1654869538,563003311,xsens_imu_link,0.2174088954925537,-0.09470558166503906,0.9611430168151855
1654869538.572102,33608,1654869538,571449851,xsens_imu_link,0.21836066246032715,-0.09374547004699707,0.9626152515411377
1654869538.5827065,33609,1654869538,582000287,xsens_imu_link,0.21834158897399902,-0.09180378913879395,0.9626281261444092
1654869538.5943315,33610,1654869538,592725452,xsens_imu_link,0.21883487701416016,-0.09425473213195801,0.9650428295135498
1654869538.6039047,33611,1654869538,603245352,xsens_imu_link,0.2169332504272461,-0.09567856788635254,0.9611313343048096
1654869538.6123757,33612,1654869538,611627712,xsens_imu_link,0.21739482879638672,-0.09423542022705078,0.9626014232635498
1654869538.6231248,33613,1654869538,622202127,xsens_imu_link,0.21931838989257812,-0.09178900718688965,0.9616684913635254
1654869538.6340435,33614,1654869538,632744766,xsens_imu_link,0.2164466381072998,-0.09716296195983887,0.9635415077209473
1654869538.6438587,33615,1654869538,643266166,xsens_imu_link,0.21790218353271484,-0.0951833724975586,0.9606597423553467
1654869538.6523514,33616,1654869538,651655599,xsens_imu_link,0.21692514419555664,-0.09421157836914062,0.9601707458496094
1654869538.6640887,33617,1654869538,662155426,xsens_imu_link,0.21884918212890625,-0.09373807907104492,0.9621355533599854
1654869538.675022,33618,1654869538,670603041,xsens_imu_link,0.2178971767425537,-0.09469795227050781,0.9606630802154541
1654869538.683916,33619,1654869538,683236243,xsens_imu_link,0.21740412712097168,-0.09421992301940918,0.9611461162567139
1654869538.6926534,33620,1654869538,691624527,xsens_imu_link,0.2193279266357422,-0.09374618530273438,0.9631109237670898
1654869538.7030408,33621,1654869538,702163760,xsens_imu_link,0.21837472915649414,-0.09322881698608398,0.9597079753875732
1654869538.7153153,33622,1654869538,710639410,xsens_imu_link,0.21739959716796875,-0.09472107887268066,0.9625983238220215
1654869538.724004,33623,1654869538,723303147,xsens_imu_link,0.2183682918548584,-0.09323930740356445,0.9606781005859375
1654869538.7323425,33624,1654869538,731681821,xsens_imu_link,0.21496963500976562,-0.09473729133605957,0.9630568027496338
1654869538.7431486,33625,1654869538,742170223,xsens_imu_link,0.21834468841552734,-0.09179878234863281,0.9621429443359375
1654869538.753751,33626,1654869538,750590746,xsens_imu_link,0.21982812881469727,-0.09618711471557617,0.9645552635192871
1654869538.7649364,33627,1654869538,763230096,xsens_imu_link,0.21982622146606445,-0.09470987319946289,0.9626247882843018
1654869538.7723165,33628,1654869538,771648712,xsens_imu_link,0.21691584587097168,-0.0952138900756836,0.9630746841430664
1654869538.7831986,33629,1654869538,782160964,xsens_imu_link,0.21496319770812988,-0.09277462959289551,0.9611294269561768
1654869538.792045,33630,1654869538,790586469,xsens_imu_link,0.21788811683654785,-0.09570002555847168,0.9635672569274902
1654869538.803857,33631,1654869538,803197357,xsens_imu_link,0.21740937232971191,-0.09569191932678223,0.9625918865203857
1654869538.8125575,33632,1654869538,811540515,xsens_imu_link,0.21836066246032715,-0.09374547004699707,0.9626152515411377
1654869538.8230922,33633,1654869538,822066896,xsens_imu_link,0.21887445449829102,-0.09468293190002441,0.9597036838531494
1654869538.8349993,33634,1654869538,832600166,xsens_imu_link,0.21738529205322266,-0.09326457977294922,0.9626080989837646
1654869538.8437653,33635,1654869538,843110844,xsens_imu_link,0.21741032600402832,-0.09322285652160645,0.9587273597717285
1654869538.8528411,33636,1654869538,851501388,xsens_imu_link,0.21741700172424316,-0.09518575668334961,0.9606544971466064
1654869538.8629925,33637,1654869538,861999030,xsens_imu_link,0.21593403816223145,-0.09375667572021484,0.9625887870788574
1654869538.8746092,33638,1654869538,872563631,xsens_imu_link,0.21644997596740723,-0.0981442928314209,0.9645051956176758
1654869538.8841612,33639,1654869538,883072458,xsens_imu_link,0.21788477897644043,-0.09471869468688965,0.9626035690307617
1654869538.8926773,33640,1654869538,891439040,xsens_imu_link,0.21880292892456055,-0.09036087989807129,0.9640986919403076
1654869538.9029336,33641,1654869538,901938849,xsens_imu_link,0.21935009956359863,-0.0946965217590332,0.9611642360687256
1654869538.9136293,33642,1654869538,912463990,xsens_imu_link,0.2164289951324463,-0.09472537040710449,0.9625875949859619
1654869538.9241443,33643,1654869538,923340480,xsens_imu_link,0.2173900604248047,-0.09375,0.9626047611236572
1654869538.9326534,33644,1654869538,931712506,xsens_imu_link,0.21933269500732422,-0.09324526786804199,0.9616589546203613
1654869538.941328,33645,1654869538,940093476,xsens_imu_link,0.21835732460021973,-0.09177780151367188,0.960202693939209
1654869538.9542754,33646,1654869538,950579990,xsens_imu_link,0.21837639808654785,-0.09470629692077637,0.9616384506225586
1654869538.9639034,33647,1654869538,963213488,xsens_imu_link,0.21932148933410645,-0.09178376197814941,0.9611835479736328
1654869538.9734313,33648,1654869538,971615809,xsens_imu_link,0.2183682918548584,-0.09323930740356445,0.9606781005859375
1654869538.983104,33649,1654869538,982124154,xsens_imu_link,0.21888065338134766,-0.09467244148254395,0.9587335586547852
1654869538.9922576,33650,1654869538,990616099,xsens_imu_link,0.21839237213134766,-0.09566664695739746,0.9606618881225586
1654869539.0040672,33651,1654869539,3178249,xsens_imu_link,0.21935510635375977,-0.09518194198608398,0.9611608982086182
1654869539.013344,33652,1654869539,11567212,xsens_imu_link,0.2198483943939209,-0.09565997123718262,0.9606778621673584
1654869539.0231044,33653,1654869539,22042023,xsens_imu_link,0.2169203758239746,-0.09471297264099121,0.9616227149963379
1654869539.034074,33654,1654869539,32570072,xsens_imu_link,0.21836543083190918,-0.09423089027404785,0.9626119136810303
1654869539.0437136,33655,1654869539,43112343,xsens_imu_link,0.21932649612426758,-0.09325551986694336,0.9626293182373047
1654869539.0533218,33656,1654869539,51508773,xsens_imu_link,0.21640515327453613,-0.09328460693359375,0.964052677154541
1654869539.0630257,33657,1654869539,61988417,xsens_imu_link,0.21641778945922852,-0.09425020217895508,0.9635608196258545
1654869539.0754123,33658,1654869539,72538539,xsens_imu_link,0.2169046401977539,-0.09375214576721191,0.962599515914917
1654869539.084219,33659,1654869539,83133825,xsens_imu_link,0.21593713760375977,-0.09375166893005371,0.9621036052703857
1654869539.0925534,33660,1654869539,91504553,xsens_imu_link,0.21591806411743164,-0.09180998802185059,0.9621164798736572
1654869539.1041884,33661,1654869539,103017898,xsens_imu_link,0.21594643592834473,-0.09373593330383301,0.9606482982635498
1654869539.115103,33662,1654869539,113313238,xsens_imu_link,0.2135026454925537,-0.09328222274780273,0.9625656604766846
1654869539.124357,33663,1654869539,123017816,xsens_imu_link,0.21593070030212402,-0.09277558326721191,0.9616248607635498
1654869539.1332066,33664,1654869539,131261847,xsens_imu_link,0.21788311004638672,-0.09422802925109863,0.9621214866638184
1654869539.143605,33665,1654869539,142187725,xsens_imu_link,0.21545958518981934,-0.0932474136352539,0.9601614475250244
1654869539.1612966,33666,1654869539,154010553,xsens_imu_link,0.2174088954925537,-0.09470558166503906,0.9611430168151855
1654869539.1639268,33667,1654869539,162550085,xsens_imu_link,0.2178640365600586,-0.09228634834289551,0.962134599685669
1654869539.171684,33668,1654869539,170927164,xsens_imu_link,0.21594810485839844,-0.09324002265930176,0.959681510925293
1654869539.1824412,33669,1654869539,181562967,xsens_imu_link,0.2163984775543213,-0.09132218360900879,0.9621250629425049
1654869539.1950622,33670,1654869539,192199176,xsens_imu_link,0.2164003849029541,-0.09279918670654297,0.9640557765960693
1654869539.2034163,33671,1654869539,202718022,xsens_imu_link,0.2149522304534912,-0.0922996997833252,0.9621028900146484
1654869539.2118568,33672,1654869539,211114285,xsens_imu_link,0.2188570499420166,-0.09421825408935547,0.9616470336914062
1654869539.2213817,33673,1654869539,219651207,xsens_imu_link,0.21737051010131836,-0.09082198143005371,0.9611690044403076
1654869539.2341661,33674,1654869539,232365317,xsens_imu_link,0.2144925594329834,-0.09521985054016113,0.9625630378723145
1654869539.2429783,33675,1654869539,241605088,xsens_imu_link,0.21546268463134766,-0.09324216842651367,0.9596762657165527
1654869539.2534363,33676,1654869539,252093139,xsens_imu_link,0.21838140487670898,-0.09519171714782715,0.9616351127624512
1654869539.261634,33677,1654869539,260674447,xsens_imu_link,0.215925931930542,-0.0932765007019043,0.9630770683288574
1654869539.2766855,33678,1654869539,271176443,xsens_imu_link,0.2183830738067627,-0.09568238258361816,0.9621171951293945
1654869539.2823853,33679,1654869539,281712862,xsens_imu_link,0.21592283248901367,-0.09328174591064453,0.9635622501373291
1654869539.2933285,33680,1654869539,292255706,xsens_imu_link,0.21787667274475098,-0.09226536750793457,0.9601943492889404
1654869539.3014202,33681,1654869539,300651414,xsens_imu_link,0.2178959846496582,-0.09519386291503906,0.9616298675537109
1654869539.3139482,33682,1654869539,311172334,xsens_imu_link,0.21693801879882812,-0.09616398811340332,0.9611279964447021
1654869539.323262,33683,1654869539,321725808,xsens_imu_link,0.21837472915649414,-0.09421539306640625,0.9611566066741943
1654869539.333989,33684,1654869539,332284522,xsens_imu_link,0.2183527946472168,-0.09425187110900879,0.9645521640777588
1654869539.3418283,33685,1654869539,341201366,xsens_imu_link,0.2164304256439209,-0.09422945976257324,0.9616203308105469
1654869539.350964,33686,1654869539,349634535,xsens_imu_link,0.21840834617614746,-0.09761357307434082,0.9611339569091797
1654869539.363413,33687,1654869539,362391846,xsens_imu_link,0.21691226959228516,-0.0932459831237793,0.9606623649597168
1654869539.3735561,33688,1654869539,371197012,xsens_imu_link,0.22032570838928223,-0.09517741203308105,0.9611713886260986
1654869539.3828208,33689,1654869539,381747689,xsens_imu_link,0.2188396453857422,-0.09276723861694336,0.9621419906616211
1654869539.3945572,33690,1654869539,392305774,xsens_imu_link,0.2183542251586914,-0.0947427749633789,0.9650342464447021
1654869539.4049404,33691,1654869539,403038293,xsens_imu_link,0.21933436393737793,-0.09472250938415527,0.9635896682739258
1654869539.412083,33692,1654869539,411447722,xsens_imu_link,0.21935009956359863,-0.0946965217590332,0.9611642360687256
1654869539.4232538,33693,1654869539,421994289,xsens_imu_link,0.2169046401977539,-0.09375214576721191,0.962599515914917
1654869539.4345465,33694,1654869539,431546134,xsens_imu_link,0.21838617324829102,-0.0966634750366211,0.963080644607544
1654869539.4433331,33695,1654869539,442058055,xsens_imu_link,0.21790719032287598,-0.09665536880493164,0.9621052742004395
1654869539.4517603,33696,1654869539,450734246,xsens_imu_link,0.21982145309448242,-0.09422421455383301,0.9626278877258301
1654869539.4623866,33697,1654869539,461278702,xsens_imu_link,0.2174077033996582,-0.09520149230957031,0.9621098041534424
1654869539.474203,33698,1654869539,472322555,xsens_imu_link,0.22079849243164062,-0.09519600868225098,0.9631171226501465
1654869539.4843369,33699,1654869539,483179678,xsens_imu_link,0.21837782859802246,-0.09322357177734375,0.9592227935791016
1654869539.492626,33700,1654869539,491571016,xsens_imu_link,0.21788620948791504,-0.0942227840423584,0.9616363048553467
1654869539.501083,33701,1654869539,499963964,xsens_imu_link,0.2174088954925537,-0.09470558166503906,0.9611430168151855
1654869539.5129666,33702,1654869539,511467365,xsens_imu_link,0.21837520599365234,-0.09618854522705078,0.9640543460845947
1654869539.5234346,33703,1654869539,522008247,xsens_imu_link,0.2198324203491211,-0.09371280670166016,0.9602057933807373
1654869539.5346773,33704,1654869539,532697602,xsens_imu_link,0.21837830543518066,-0.09519696235656738,0.9621202945709229
1654869539.542033,33705,1654869539,541096272,xsens_imu_link,0.21837306022644043,-0.09372472763061523,0.9606747627258301
1654869539.5529156,33706,1654869539,551826384,xsens_imu_link,0.2183845043182373,-0.09518647193908691,0.9611501693725586
1654869539.5639465,33707,1654869539,562421596,xsens_imu_link,0.21689343452453613,-0.09229087829589844,0.9621241092681885
1654869539.5722177,33708,1654869539,570834210,xsens_imu_link,0.21883320808410645,-0.09277749061584473,0.9631121158599854
1654869539.5821862,33709,1654869539,581353260,xsens_imu_link,0.21642088890075684,-0.09325861930847168,0.9616270065307617
1654869539.5938177,33710,1654869539,591915196,xsens_imu_link,0.21788811683654785,-0.09570002555847168,0.9635672569274902
1654869539.6053076,33711,1654869539,602454948,xsens_imu_link,0.21742844581604004,-0.09763360023498535,0.9625787734985352
1654869539.6121945,33712,1654869539,610862507,xsens_imu_link,0.21741843223571777,-0.09468984603881836,0.9596877098083496
1654869539.623212,33713,1654869539,621386630,xsens_imu_link,0.21884441375732422,-0.0942389965057373,0.9635875225067139
1654869539.6380367,33714,1654869539,631935049,xsens_imu_link,0.21885228157043457,-0.09471940994262695,0.9630992412567139
1654869539.6436691,33715,1654869539,642478653,xsens_imu_link,0.2174057960510254,-0.09372401237487793,0.960179328918457
1654869539.651411,33716,1654869539,650842455,xsens_imu_link,0.2183687686920166,-0.09521245956420898,0.9635756015777588
1654869539.6622071,33717,1654869539,661377189,xsens_imu_link,0.21886157989501953,-0.09273052215576172,0.9587464332580566
1654869539.674776,33718,1654869539,672444559,xsens_imu_link,0.21886205673217773,-0.09569025039672852,0.9630928039550781
1654869539.682915,33719,1654869539,681808989,xsens_imu_link,0.21835732460021973,-0.0937507152557373,0.9631001949310303
1654869539.6938405,33720,1654869539,692316077,xsens_imu_link,0.21640348434448242,-0.09279394149780273,0.9635705947875977
1654869539.701813,33721,1654869539,701082856,xsens_imu_link,0.21742510795593262,-0.09566593170166016,0.9601664543151855
1654869539.71397,33722,1654869539,712432266,xsens_imu_link,0.21741890907287598,-0.09666275978088379,0.9625852108001709
1654869539.7240486,33723,1654869539,723304851,xsens_imu_link,0.21692848205566406,-0.09519314765930176,0.9611344337463379
1654869539.7323568,33724,1654869539,731675412,xsens_imu_link,0.21884751319885254,-0.09423375129699707,0.9631023406982422
1654869539.7432928,33725,1654869539,742166093,xsens_imu_link,0.21738672256469727,-0.09276890754699707,0.9616408348083496
1654869539.7552726,33726,1654869539,752713048,xsens_imu_link,0.21741080284118652,-0.09618258476257324,0.9630734920501709
1654869539.7638862,33727,1654869539,763210377,xsens_imu_link,0.21792125701904297,-0.09712505340576172,0.9606468677520752
1654869539.7731235,33728,1654869539,771583623,xsens_imu_link,0.2174077033996582,-0.09520149230957031,0.9621098041534424
1654869539.7832022,33729,1654869539,782134763,xsens_imu_link,0.21788454055786133,-0.09274554252624512,0.9597058296203613
1654869539.7921562,33730,1654869539,791267633,xsens_imu_link,0.21792149543762207,-0.09811162948608398,0.9620957374572754
1654869539.8028224,33731,1654869539,801753869,xsens_imu_link,0.2169044017791748,-0.09276580810546875,0.9611506462097168
1654869539.8134813,33732,1654869539,812259901,xsens_imu_link,0.21741533279418945,-0.0946950912475586,0.9601728916168213
1654869539.8212852,33733,1654869539,820660516,xsens_imu_link,0.21888422966003418,-0.09664034843444824,0.9611458778381348
1654869539.833575,33734,1654869539,831212268,xsens_imu_link,0.21934080123901367,-0.0947120189666748,0.9626195430755615
1654869539.842672,33735,1654869539,841754205,xsens_imu_link,0.21837520599365234,-0.09520196914672852,0.9626054763793945
1654869539.8537345,33736,1654869539,852292587,xsens_imu_link,0.21884894371032715,-0.09176492691040039,0.959237813949585
1654869539.8615222,33737,1654869539,860716256,xsens_imu_link,0.2159435749053955,-0.09472775459289551,0.9625823497772217
1654869539.875818,33738,1654869539,873313947,xsens_imu_link,0.21839261054992676,-0.09665322303771973,0.9621105194091797
1654869539.882758,33739,1654869539,881725912,xsens_imu_link,0.21642732620239258,-0.09423470497131348,0.9621055126190186
1654869539.8937275,33740,1654869539,892256461,xsens_imu_link,0.21592450141906738,-0.09278583526611328,0.9625952243804932
1654869539.9014971,33741,1654869539,900652336,xsens_imu_link,0.2179117202758789,-0.09615421295166016,0.9606533050537109
1654869539.915509,33742,1654869539,911139832,xsens_imu_link,0.21983551979064941,-0.09469437599182129,0.9611694812774658
1654869539.925501,33743,1654869539,922459114,xsens_imu_link,0.21983075141906738,-0.0942087173461914,0.9611725807189941
1654869539.9319096,33744,1654869539,930862802,xsens_imu_link,0.220306396484375,-0.09323549270629883,0.9611845016479492
1654869539.9421327,33745,1654869539,941483235,xsens_imu_link,0.21787047386169434,-0.0932621955871582,0.9626133441925049
1654869539.954669,33746,1654869539,952027987,xsens_imu_link,0.21834802627563477,-0.09475326538085938,0.9660043716430664
1654869539.9633462,33747,1654869539,962599886,xsens_imu_link,0.21837997436523438,-0.0956873893737793,0.9626023769378662
1654869539.9716668,33748,1654869539,970974465,xsens_imu_link,0.22078561782836914,-0.09324383735656738,0.9621601104736328
1654869539.982654,33749,1654869539,981429944,xsens_imu_link,0.2174360752105713,-0.09712743759155273,0.960641622543335
1654869539.9938211,33750,1654869539,992905273,xsens_imu_link,0.21885395050048828,-0.0942234992980957,0.9621322154998779
1654869540.0043924,33751,1654869540,3451784,xsens_imu_link,0.2149507999420166,-0.09378194808959961,0.9645185470581055
1654869540.0125387,33752,1654869540,11784524,xsens_imu_link,0.21445894241333008,-0.09182167053222656,0.9625856876373291
1654869540.0210652,33753,1654869540,20146398,xsens_imu_link,0.21689653396606445,-0.0922856330871582,0.9616389274597168
1654869540.0314028,33754,1654869540,30701206,xsens_imu_link,0.2159738540649414,-0.09714460372924805,0.9615957736968994
1654869540.0441592,33755,1654869540,43352954,xsens_imu_link,0.21882367134094238,-0.09180665016174316,0.9631185531616211
1654869540.0523758,33756,1654869540,51727234,xsens_imu_link,0.2169044017791748,-0.09276580810546875,0.9611506462097168
1654869540.0634694,33757,1654869540,62240100,xsens_imu_link,0.2188858985900879,-0.09614443778991699,0.9601790904998779
1654869540.0712798,33758,1654869540,70670507,xsens_imu_link,0.21643519401550293,-0.09471511840820312,0.9616172313690186
1654869540.086612,33759,1654869540,83597573,xsens_imu_link,0.21837782859802246,-0.09421014785766602,0.9606714248657227
1654869540.0937834,33760,1654869540,92042460,xsens_imu_link,0.21689987182617188,-0.09326672554016113,0.9626028537750244
1654869540.1039426,33761,1654869540,102872994,xsens_imu_link,0.21787190437316895,-0.09375286102294922,0.96309494972229
1654869540.11243,33762,1654869540,111295197,xsens_imu_link,0.2149345874786377,-0.09084844589233398,0.9625978469848633
1654869540.1250792,33763,1654869540,123740938,xsens_imu_link,0.2178640365600586,-0.09327268600463867,0.9635834693908691
1654869540.1336193,33764,1654869540,132157346,xsens_imu_link,0.21692538261413574,-0.09519839286804199,0.9616193771362305
1654869540.1435173,33765,1654869540,142908643,xsens_imu_link,0.2154533863067627,-0.09424424171447754,0.9625802040100098
1654869540.1544962,33766,1654869540,151422545,xsens_imu_link,0.2159435749053955,-0.09472775459289551,0.9625823497772217
1654869540.1652448,33767,1654869540,164195213,xsens_imu_link,0.2178351879119873,-0.09134674072265625,0.9650516510009766
1654869540.1736615,33768,1654869540,172867754,xsens_imu_link,0.21641302108764648,-0.09277844429016113,0.9621152877807617
1654869540.1816828,33769,1654869540,181043360,xsens_imu_link,0.21689987182617188,-0.09326672554016113,0.9626028537750244
1654869540.1930351,33770,1654869540,191658812,xsens_imu_link,0.21883797645568848,-0.09326291084289551,0.963109016418457
1654869540.2033153,33771,1654869540,202200529,xsens_imu_link,0.21737241744995117,-0.09229898452758789,0.963099479675293
1654869540.2135732,33772,1654869540,212977454,xsens_imu_link,0.21689820289611816,-0.09376263618469238,0.9635696411132812
1654869540.2217755,33773,1654869540,221130358,xsens_imu_link,0.21593236923217773,-0.09326624870300293,0.9621069431304932
1654869540.233127,33774,1654869540,231893988,xsens_imu_link,0.21837329864501953,-0.0947115421295166,0.9621236324310303
1654869540.2432182,33775,1654869540,242665062,xsens_imu_link,0.21692347526550293,-0.09372091293334961,0.9596889019012451
1654869540.2527616,33776,1654869540,250777911,xsens_imu_link,0.21787357330322266,-0.09325718879699707,0.9621281623840332
1654869540.2636063,33777,1654869540,262036829,xsens_imu_link,0.2168869972229004,-0.0923011302947998,0.9630942344665527
1654869540.2734551,33778,1654869540,271594322,xsens_imu_link,0.2193758487701416,-0.09662771224975586,0.9601809978485107
1654869540.284034,33779,1654869540,282095929,xsens_imu_link,0.21835589408874512,-0.09326004981994629,0.9626185894012451
1654869540.2916465,33780,1654869540,291063713,xsens_imu_link,0.21645593643188477,-0.09517431259155273,0.9591884613037109
1654869540.3023434,33781,1654869540,301572080,xsens_imu_link,0.21835088729858398,-0.09178829193115234,0.9611728191375732
1654869540.3106325,33782,1654869540,310008356,xsens_imu_link,0.21884751319885254,-0.09423375129699707,0.9631023406982422
1654869540.3243372,33783,1654869540,323395842,xsens_imu_link,0.21787667274475098,-0.09423828125,0.9630916118621826
1654869540.3304312,33784,1654869540,329806415,xsens_imu_link,0.21688389778137207,-0.09230637550354004,0.9635794162750244
1654869540.343312,33785,1654869540,342395907,xsens_imu_link,0.2164146900177002,-0.09326887130737305,0.9625973701477051
1654869540.3523533,33786,1654869540,351750559,xsens_imu_link,0.21690607070922852,-0.09325647354125977,0.961632490158081
1654869540.363395,33787,1654869540,362275314,xsens_imu_link,0.21691274642944336,-0.09521913528442383,0.9635598659515381
1654869540.3713694,33788,1654869540,370713979,xsens_imu_link,0.21643543243408203,-0.09570145606994629,0.9630661010742188
1654869540.3818083,33789,1654869540,381251399,xsens_imu_link,0.2183668613433838,-0.0937352180480957,0.9616448879241943
1654869540.3941002,33790,1654869540,392716435,xsens_imu_link,0.21930718421936035,-0.09131383895874023,0.9626421928405762
1654869540.403302,33791,1654869540,402696904,xsens_imu_link,0.21594977378845215,-0.09471750259399414,0.9616119861602783
1654869540.4133627,33792,1654869540,412111386,xsens_imu_link,0.21741080284118652,-0.09519624710083008,0.9616246223449707
1654869540.422666,33793,1654869540,421606234,xsens_imu_link,0.21643829345703125,-0.09372305870056152,0.9596834182739258
1654869540.4336529,33794,1654869540,431303145,xsens_imu_link,0.21640658378601074,-0.0927886962890625,0.963085412979126
1654869540.4425685,33795,1654869540,441813437,xsens_imu_link,0.21837162971496582,-0.09422063827514648,0.9616415500640869
1654869540.4537477,33796,1654869540,452303712,xsens_imu_link,0.21645140647888184,-0.09666204452514648,0.9620893001556396
1654869540.461309,33797,1654869540,460691824,xsens_imu_link,0.21790719032287598,-0.09665536880493164,0.9621052742004395
1654869540.473677,33798,1654869540,471335257,xsens_imu_link,0.218336820602417,-0.09230494499206543,0.9640803337097168
1654869540.482869,33799,1654869540,481805496,xsens_imu_link,0.21690130233764648,-0.09277105331420898,0.9616355895996094
1654869540.4934616,33800,1654869540,492629104,xsens_imu_link,0.21688246726989746,-0.09280228614807129,0.9645462036132812
1654869540.5027194,33801,1654869540,501488413,xsens_imu_link,0.21596908569335938,-0.095672607421875,0.9601504802703857
1654869540.5144985,33802,1654869540,512117050,xsens_imu_link,0.2193453311920166,-0.09421086311340332,0.9611673355102539
1654869540.5239425,33803,1654869540,522786037,xsens_imu_link,0.215925931930542,-0.09229016304016113,0.9616281986236572
1654869540.5325327,33804,1654869540,531198223,xsens_imu_link,0.2188553810119629,-0.09372758865356445,0.9611654281616211
1654869540.54281,33805,1654869540,541722718,xsens_imu_link,0.2188410758972168,-0.09227132797241211,0.9611752033233643
1654869540.5540438,33806,1654869540,552277637,xsens_imu_link,0.21884751319885254,-0.0932474136352539,0.9616537094116211
1654869540.563607,33807,1654869540,562912904,xsens_imu_link,0.21982121467590332,-0.09323787689208984,0.961179256439209
1654869540.5719662,33808,1654869540,571292017,xsens_imu_link,0.2178802490234375,-0.09521985054016113,0.9640555381774902
1654869540.5805964,33809,1654869540,579696962,xsens_imu_link,0.2168741226196289,-0.09133553504943848,0.9635858535766602
1654869540.592832,33810,1654869540,590215216,xsens_imu_link,0.2178797721862793,-0.0932466983795166,0.961158037185669
1654869540.601779,33811,1654869540,600737211,xsens_imu_link,0.21837639808654785,-0.093719482421875,0.9601898193359375
1654869540.6123555,33812,1654869540,611250040,xsens_imu_link,0.21983742713928223,-0.0951850414276123,0.961651086807251
1654869540.6230302,33813,1654869540,621746981,xsens_imu_link,0.2164478302001953,-0.09469413757324219,0.95967698097229
1654869540.634108,33814,1654869540,632927718,xsens_imu_link,0.2188413143157959,-0.09424424171447754,0.9640727043151855
1654869540.6435113,33815,1654869540,642828747,xsens_imu_link,0.21689510345458984,-0.09278130531311035,0.9626059532165527
1654869540.6539981,33816,1654869540,651214212,xsens_imu_link,0.21785616874694824,-0.09180593490600586,0.962622880935669
1654869540.662403,33817,1654869540,661692413,xsens_imu_link,0.21690607070922852,-0.09325647354125977,0.961632490158081
1654869540.6759174,33818,1654869540,672284923,xsens_imu_link,0.2168583869934082,-0.09037518501281738,0.9645624160766602
1654869540.6836848,33819,1654869540,683050460,xsens_imu_link,0.21399903297424316,-0.09375524520874023,0.961597204208374
1654869540.6918967,33820,1654869540,691249824,xsens_imu_link,0.21933436393737793,-0.09472250938415527,0.9635896682739258
1654869540.702371,33821,1654869540,701762912,xsens_imu_link,0.21592283248901367,-0.09328174591064453,0.9635622501373291
1654869540.713819,33822,1654869540,712288129,xsens_imu_link,0.21789097785949707,-0.09470844268798828,0.9616332054138184
1654869540.7237282,33823,1654869540,723000910,xsens_imu_link,0.21884918212890625,-0.09373807907104492,0.9621355533599854
1654869540.7331657,33824,1654869540,731834794,xsens_imu_link,0.21739625930786133,-0.09373974800109863,0.9616343975067139
1654869540.741378,33825,1654869540,740596738,xsens_imu_link,0.21739625930786133,-0.09373974800109863,0.9616343975067139
1654869540.7518663,33826,1654869540,751133418,xsens_imu_link,0.21690773963928223,-0.09374713897705078,0.9621143341064453
1654869540.7644851,33827,1654869540,763765334,xsens_imu_link,0.2174088954925537,-0.0937187671661377,0.9596941471099854
1654869540.7738433,33828,1654869540,772959643,xsens_imu_link,0.21642565727233887,-0.0927574634552002,0.9601750373840332
1654869540.781702,33829,1654869540,781064641,xsens_imu_link,0.2169170379638672,-0.09274482727050781,0.9592101573944092
1654869540.7940712,33830,1654869540,791598506,xsens_imu_link,0.22078871726989746,-0.09422492980957031,0.9631235599517822
1654869540.8028648,33831,1654869540,802175276,xsens_imu_link,0.21689987182617188,-0.09326672554016113,0.9626028537750244
1654869540.8121989,33832,1654869540,810752508,xsens_imu_link,0.21738052368164062,-0.09277915954589844,0.962611198425293
1654869540.822048,33833,1654869540,821284224,xsens_imu_link,0.21983551979064941,-0.09469437599182129,0.9611694812774658
1654869540.8324122,33834,1654869540,831118591,xsens_imu_link,0.21595168113708496,-0.09520816802978516,0.9620938301086426
1654869540.8431509,33835,1654869540,841683176,xsens_imu_link,0.21692657470703125,-0.09470248222351074,0.9606525897979736
1654869540.8540921,33836,1654869540,852215356,xsens_imu_link,0.21689653396606445,-0.09327197074890137,0.963087797164917
1654869540.8617597,33837,1654869540,860681612,xsens_imu_link,0.2178940773010254,-0.09470319747924805,0.9611482620239258
1654869540.8729727,33838,1654869540,871364006,xsens_imu_link,0.21789932250976562,-0.09617495536804199,0.9625937938690186
1654869540.883371,33839,1654869540,881895704,xsens_imu_link,0.21691226959228516,-0.09225940704345703,0.9592134952545166
1654869540.8911994,33840,1654869540,890247004,xsens_imu_link,0.21691250801086426,-0.09423255920410156,0.9621109962463379
1654869540.9013717,33841,1654869540,900730742,xsens_imu_link,0.21836519241333008,-0.09324455261230469,0.9611632823944092
1654869540.91529,33842,1654869540,911912478,xsens_imu_link,0.21741867065429688,-0.09567642211914062,0.9611365795135498
1654869540.9240317,33843,1654869540,923334257,xsens_imu_link,0.2169201374053955,-0.09273958206176758,0.9587252140045166
1654869540.9327643,33844,1654869540,931735758,xsens_imu_link,0.2173595428466797,-0.0903470516204834,0.9621422290802002
1654869540.943249,33845,1654869540,942232236,xsens_imu_link,0.21886682510375977,-0.09518933296203613,0.9616405963897705
1654869540.954578,33846,1654869540,951423193,xsens_imu_link,0.21837353706359863,-0.09569787979125977,0.9635725021362305
1654869540.9634578,33847,1654869540,962454105,xsens_imu_link,0.21837472915649414,-0.09421539306640625,0.9611566066741943
1654869540.9713938,33848,1654869540,970851773,xsens_imu_link,0.217393159866333,-0.09374499320983887,0.9621195793151855
1654869540.9821,33849,1654869540,981365990,xsens_imu_link,0.21689820289611816,-0.09277629852294922,0.962120771408081
1654869540.9922473,33850,1654869540,989795934,xsens_imu_link,0.21787047386169434,-0.09424877166748047,0.964061975479126
1654869541.0035875,33851,1654869541,3048038,xsens_imu_link,0.21836519241333008,-0.09324455261230469,0.9611632823944092
1654869541.012253,33852,1654869541,11420939,xsens_imu_link,0.21837520599365234,-0.09520196914672852,0.9626054763793945
1654869541.0204368,33853,1654869541,19816974,xsens_imu_link,0.21887636184692383,-0.09517359733581543,0.9601855278015137
1654869541.0338044,33854,1654869541,32509133,xsens_imu_link,0.21887946128845215,-0.09615492820739746,0.9611492156982422
1654869541.0437717,33855,1654869541,43043387,xsens_imu_link,0.2154374122619629,-0.09328389167785645,0.9635570049285889
